"place_id","place_name","category","latitude","longitude","pet_policy"
"KTO_001","멍멍식탁","식당","37.2858000","127.0110000","대형견 동반 가능(25kg 이하), 리드줄 필수, 야외 테라스 전용"
"KTO_002","댕댕카페","카페","37.2900000","127.0155000","모든 크기 반려견 가능, 목줄 필수 착용, 반려동물 전용 간식 판매"
"KTO_003","퍼피스테이","숙소","37.2740000","127.0050000","대형견 포함 전 견종 가능, 실내 펜스 제공, 반려동물 세탁 서비스"
"KTO_004","반려동물 테마공원","공원","37.2810000","127.0490000","전 견종 입장 가능, 목줄 또는 하네스 필수, 대형견 전용 운동 구역 분리"
"KTO_005","숲속카페","카페","37.2985000","126.9970000","중형견 이하 가능(20kg 미만), 야외석만 허용, 목줄 착용"
"KTO_006","도그비스트로","식당","37.2870000","127.0210000","대형견 동반 가능, 전용 주차 공간 있음, 리드줄 필수"
"4009679","올리브영 충주연수점","","36.9828977","127.9399121","정보없음"
"4009680","올리브영 서충주점","","37.0161435","127.8251906","정보없음"
"4009735","올리브영 충남도청점","","36.6570433","126.6793668","정보없음"
"128908","신두리해수욕장","","36.8397766","126.1897369","정보없음"
"1532480","백화산(태안)","","36.7668961","126.3011899","정보없음"
"2569511","감악산 출렁다리","","37.9377720","126.9471160","정보없음"
"2633904","대청호 벚꽃길","","36.3665000","127.5043000","정보없음"
"2633942","마장호수 출렁다리","","37.7757130","126.9278640","정보없음"
"2729918","용소웰빙공원","","35.2467000","129.2045000","정보없음"
"2783371","구절산","","35.0146429","128.4199516","정보없음"
"4007955","올리브영 대전관저점","","36.2987389","127.3401794","정보없음"
"4007957","올리브영 대전마치광장점","","36.2985304","127.3371584","정보없음"
"4007960","올리브영 안암점","","37.5842071","127.0293212","정보없음"
"4007961","올리브영 대전파랑새점","","36.3527340","127.3798631","정보없음"
"4007962","올리브영 길음점","","37.6037856","127.0234374","정보없음"
"4007964","올리브영 장위뉴타운점","","37.6198224","127.0496604","정보없음"
"4007965","올리브영 대전도안호수공원점","","36.3261962","127.3485718","정보없음"
"4007968","올리브영 대전탄방점","","36.3473270","127.3879760","정보없음"
"4007969","올리브영 대전초록마을점","","36.2989118","127.3782235","정보없음"
"4007972","올리브영 대전용문역점","","36.3393969","127.3915007","정보없음"
"4007973","올리브영 대전월평역점","","36.3559619","127.3636618","정보없음"
"4007974","올리브영 대전정부청사점","","36.3595087","127.3898345","정보없음"
"4007976","올리브영 대전월평점","","36.3601105","127.3769445","정보없음"
"4007979","올리브영 대전유성자이점","","36.3561629","127.3371637","정보없음"
"4007981","올리브영 대전관평점","","36.4226956","127.3884993","정보없음"
"4007983","올리브영 대전유성온천역점","","36.3549244","127.3414592","정보없음"
"4007985","올리브영 대전봉명점","","36.3587476","127.3442387","정보없음"
"4007987","올리브영 대전상대점","","36.3456533","127.3396914","정보없음"
"4007988","올리브영 대전용산점","","36.4165344","127.3937384","정보없음"
"4007989","올리브영 대전신성점","","36.3867273","127.3498257","정보없음"
"4007992","올리브영 대전전민점","","36.3993897","127.4022213","정보없음"
"4007993","올리브영 대전노은역점","","36.3735664","127.3191224","정보없음"
"4007994","올리브영 대전죽동점","","36.3701092","127.3384254","정보없음"
"4008001","올리브영 서대전네거리점","","36.3220788","127.4098387","정보없음"
"4008005","올리브영 대전목동점","","36.3348141","127.4117707","정보없음"
"4008007","올리브영 대전역점","","36.3327613","127.4321949","정보없음"
"4008010","올리브영 대전대흥점","","36.3273854","127.4244526","정보없음"
"4008012","올리브영 대전버드내점","","36.3190651","127.3924701","정보없음"
"4008013","올리브영 명지국제신도시점","","35.0976062","128.9211491","정보없음"
"4008019","올리브영 부산남산점","","35.2621467","129.0913122","정보없음"
"4008047","올리브영 부산범일점","","35.1392248","129.0596955","정보없음"
"4008070","올리브영 부산전포역점","","35.1543321","129.0647113","정보없음"
"4008093","올리브영 부산사상광장점","","35.1634860","128.9797531","정보없음"
"4008096","올리브영 부산당리점","","35.1039492","128.9732652","정보없음"
"4008106","올리브영 부산마린시티아이파크점","","35.1570378","129.1433287","정보없음"
"4008107","올리브영 부산벡스코점","","35.1666672","129.1324513","정보없음"
"4008124","올리브영 해운대센트럴점","","35.1646359","129.1613191","정보없음"
"4008132","올리브영 강남논현점","","37.5066350","127.0245448","정보없음"
"4008133","올리브영 대치역점","","37.4933489","127.0619166","정보없음"
"4008135","올리브영 포이사거리점","","37.4773868","127.0453374","정보없음"
"4008148","올리브영 수서역점","","37.4880245","127.1018445","정보없음"
"4008151","올리브영 대치사거리점","","37.5022364","127.0595255","정보없음"
"4008152","올리브영 개포동점","","37.4822879","127.0614866","정보없음"
"4008153","올리브영 한티역점","","37.4975437","127.0526428","정보없음"
"4008154","올리브영 압구정로데오역점","","37.5250891","127.0394311","정보없음"
"4008160","올리브영 선릉점","","37.5054927","127.0534677","정보없음"
"4008162","올리브영 명일역점","","37.5517127","127.1438215","정보없음"
"4008168","올리브영 마곡역점","","37.5592736","126.8261370","정보없음"
"4008171","올리브영 낙성대점","","37.4777034","126.9612056","정보없음"
"4008420","올리브영 광주하남점","","35.1789750","126.8050859","정보없음"
"4008421","올리브영 광주첨단쌍암점","","35.2159885","126.8500601","정보없음"
"4008422","올리브영 광주장덕점","","35.1904445","126.8187432","정보없음"
"4008426","올리브영 광주봉선점","","35.1228181","126.9136608","정보없음"
"4008427","올리브영 광주진월점","","35.1207058","126.8985118","정보없음"
"4026352","아트박스 하남미사점","","37.5637312","127.1917417","정보없음"
"4008428","올리브영 광주효천지구점","","35.1015345","126.8746876","정보없음"
"4008429","올리브영 광주충장로입구점","","35.1481707","126.9137486","정보없음"
"4008432","올리브영 광주문흥점","","35.1865994","126.9220490","정보없음"
"4008434","올리브영 광주운암점","","35.1796738","126.8745425","정보없음"
"4008435","올리브영 광주일곡점","","35.2054757","126.8980636","정보없음"
"4008436","올리브영 광주양산점","","35.2100928","126.8802620","정보없음"
"4008437","올리브영 광주첨단2지구점","","35.2065770","126.8640291","정보없음"
"4008439","올리브영 광주금호지구점","","35.1319351","126.8585528","정보없음"
"4008440","올리브영 광주광천점","","35.1623728","126.8805300","정보없음"
"4008444","올리브영 광주화정점","","35.1423781","126.8750921","정보없음"
"4008446","올리브영 광주상무시청점","","35.1567172","126.8476466","정보없음"
"4008447","올리브영 광주풍암점","","35.1271908","126.8790798","정보없음"
"4008448","올리브영 광주동천점","","35.1716151","126.8655280","정보없음"
"4008449","올리브영 대구앞산점","","35.8356564","128.5793981","정보없음"
"4008450","올리브영 대구대명점","","35.8397496","128.5675436","정보없음"
"4008451","올리브영 계명대점","","35.8553656","128.4937899","정보없음"
"4008453","올리브영 대구강창역점","","35.8534267","128.4788936","정보없음"
"4008712","올리브영 대구성서모다점","","35.8377832","128.4913688","정보없음"
"4008713","올리브영 대구죽전네거리점","","35.8492760","128.5366803","정보없음"
"4008714","올리브영 대구서부정류장점","","35.8359730","128.5559944","정보없음"
"4008715","올리브영 대구이곡점","","35.8549657","128.5099875","정보없음"
"4008716","올리브영 대구월성점","","35.8245672","128.5268071","정보없음"
"4008717","올리브영 대구진천점","","35.8151532","128.5238266","정보없음"
"4008718","올리브영 대구죽곡점","","35.8574401","128.4648047","정보없음"
"4008719","올리브영 대구테크노엠스퀘어점","","35.6930633","128.4629008","정보없음"
"4008720","올리브영 대구현풍점","","35.6931967","128.4563415","정보없음"
"4011565","NOS7","","37.5216994","127.0203847","정보없음"
"4011573","아티산코리아","","37.5199345","127.0331912","정보없음"
"4011574","감탄 도산공원 스토어","","37.5222386","127.0325628","정보없음"
"4011575","힘도산 HDEX 플래그십스토어","","37.5256968","127.0360397","정보없음"
"4011577","스톤헨지 롯데백화점 안산점","","37.3180026","126.8345004","정보없음"
"4011578","말본6451 도산플래그쉽스토어","","37.5261536","127.0349334","정보없음"
"4011587","LG전자 베스트샵 대치본점","","37.4971286","127.0705535","정보없음"
"4011626","브룩스브라더스 스타필드 안성점","","36.9946334","127.1472496","정보없음"
"4011627","닥터마틴 스타필드 안성점","","36.9946334","127.1472496","정보없음"
"4011628","스와치 스타필드 안성점","","36.9946334","127.1472496","정보없음"
"4011629","쌤소나이트 스타필드 안성점","","36.9946334","127.1472496","정보없음"
"4011630","내셔널지오그래픽 스타필드 안성점","","36.9946334","127.1472496","정보없음"
"4011634","파타고니아 스타필드 안성점","","36.9946334","127.1472496","정보없음"
"4011648","유니클로 스타필드 안성점","","36.9946334","127.1472496","정보없음"
"4011650","쉬즈미스 스타필드 안성점","","36.9946334","127.1472496","정보없음"
"4011654","삼성스토어 안성","","37.0126951","127.2589144","정보없음"
"4011656","아트박스 안성중앙점","","37.0075228","127.2707783","정보없음"
"4011665","프라다퍼퓸 현대백화점 무역센터점","","37.5086151","127.0597651","정보없음"
"4011668","라이프워크 파르나스몰점","","37.5091917","127.0608069","정보없음"
"4011682","교보문고 수유점","","37.6383189","127.0265481","정보없음"
"4011684","교보문고 롯데백화점 평촌점","","37.3900022","126.9501786","정보없음"
"4011688","LG전자 베스트샵 평촌본점","","37.3920837","126.9739463","정보없음"
"4011689","아트박스 안양엔터식스점","","37.4014350","126.9230027","정보없음"
"4011690","롯데하이마트 엔터식스안양역점","","37.4014350","126.9230027","정보없음"
"4011691","삼성스토어 안양","","37.3941308","126.9258188","정보없음"
"4011692","LG전자 베스트샵 안양점","","37.3948389","126.9252354","정보없음"
"4011697","안다르 LF스퀘어 양주점","","37.8313923","127.0522919","정보없음"
"4011701","라이프워크 프리미엄빌리지 여주점","","37.2418073","127.6169531","정보없음"
"4011703","미즈노 프리미엄빌리지 여주점","","37.2422434","127.6164563","정보없음"
"4011706","블랙야크 우이점","","37.6624113","127.0097246","정보없음"
"4011710","ABC마트 SE NC백화점 강서점","","37.5599335","126.8404988","정보없음"
"4011738","삼성스토어 관악봉천","","37.4828518","126.9414498","정보없음"
"4011741","아트박스 낙성대점","","37.4770198","126.9626445","정보없음"
"4011744","트라이엄프 엘르 신세계사이먼프리미엄아울렛 여주점","","37.2459467","127.6123854","정보없음"
"4011749","JJ지고트 롯데백화점 관악점","","37.4904955","126.9249817","정보없음"
"4011750","내셔널지오그래픽 신세계사이먼프리미엄아울렛 여주점","","37.2459467","127.6123854","정보없음"
"4011756","언더아머 신세계사이먼프리미엄아울렛 여주점","","37.2459467","127.6123854","정보없음"
"4011762","헬렌카민스키 신세계사이먼프리미엄아울렛 여주점","","37.2459467","127.6123854","정보없음"
"4011763","삼성스토어 신림","","37.4887569","126.9285541","정보없음"
"4011764","아트박스 구의점","","37.5417965","127.0947092","정보없음"
"4011766","삼성스토어 광진","","37.5523881","127.0774115","정보없음"
"4011772","엠플레이그라운드 건대점","","37.5407921","127.0702568","정보없음"
"4011775","존스 신세계사이먼프리미엄아울렛 여주점","","37.2459467","127.6123854","정보없음"
"4011780","오프라벨 신세계사이먼프리미엄아울렛 여주점","","37.2459467","127.6123854","정보없음"
"4011781","로저비비에 신세계사이먼프리미엄아울렛 여주점","","37.2459467","127.6123854","정보없음"
"4011783","말본골프 신세계사이먼프리미엄아울렛 여주점","","37.2459467","127.6123854","정보없음"
"4011784","PXG 신세계사이먼프리미엄아울렛 여주점","","37.2459467","127.6123854","정보없음"
"4011785","행켈 & 스타우브 신세계사이먼프리미엄아울렛 여주점","","37.2459467","127.6123854","정보없음"
"4011787","롯데하이마트 여주점","","37.2882491","127.6347427","정보없음"
"4011789","골프프렌드골때려골프 오산점","","37.1477566","127.0785065","정보없음"
"4011790","아트박스 오산점","","37.1459916","127.0694328","정보없음"
"4011792","쉬즈미스 구로디지털단지점","","37.4838066","126.9017562","정보없음"
"4011799","말본골프 롯데프리미엄아울렛 기흥점","","37.2255420","127.1212840","정보없음"
"4008721","올리브영 대구화원점","","35.8033633","128.4967339","정보없음"
"4008722","올리브영 대구동호점","","35.8663642","128.7243746","정보없음"
"4011800","스노우피크 롯데프리미엄아울렛 기흥점","","37.2255420","127.1212840","정보없음"
"4011801","어뉴골프 롯데프리미엄아울렛 기흥점","","37.2255420","127.1212840","정보없음"
"4011803","다이나핏 롯데프리미엄아울렛 기흥점","","37.2255420","127.1212840","정보없음"
"4011808","커버낫 롯데프리미엄아울렛 기흥점","","37.2255420","127.1212840","정보없음"
"4011809","살로몬 롯데프리미엄아울렛 기흥점","","37.2255420","127.1212840","정보없음"
"4011811","파타고니아 롯데프리미엄아울렛 기흥점","","37.2255420","127.1212840","정보없음"
"4011813","드로우핏 롯데프리미엄아울렛 기흥점","","37.2255420","127.1212840","정보없음"
"4011815","윌슨 롯데프리미엄아울렛 기흥점","","37.2255420","127.1212840","정보없음"
"4011816","린 현대아울렛 가산점","","37.4776190","126.8890553","정보없음"
"4011819","탑텐키즈 롯데프리미엄아울렛 기흥점","","37.2255420","127.1212840","정보없음"
"4011821","쉬즈미스 롯데프리미엄아울렛 기흥점","","37.2255420","127.1212840","정보없음"
"4011825","풋조이 롯데프리미엄아울렛 기흥점","","37.2255420","127.1212840","정보없음"
"4012543","한국금거래소 골드쉘 마포점","","37.5515008","126.9139502","정보없음"
"4027286","다이소 홈플러스 상봉점","","37.5983328","127.0916241","정보없음"
"4011875","미셸탠디 롯데프리미엄아울렛 의왕점","","37.3758169","127.0102773","정보없음"
"4013190","버버리남성 롯데백화점 잠실 에비뉴엘점","","37.5137130","127.1043018","정보없음"
"4010554","타미야 플라모델 팩토리 스타필드 하남점","","37.5454041","127.2239403","정보없음"
"4010562","골프파트너앤코스모 위례신도시점","","37.4785918","127.1482712","정보없음"
"4013031","에잇세컨즈 현대백화점 신촌점 유플렉스","","37.5567378","126.9365597","정보없음"
"4012900","에잇세컨즈 송도 트리플스트리트점","","37.3804451","126.6602318","정보없음"
"4011702","에잇세컨즈 프리미엄빌리지 여주점","","37.2423541","127.6153787","정보없음"
"4012473","에잇세컨즈 동탄레이크꼬모점","","37.1720681","127.1041406","정보없음"
"4011900","F.G.F종합관 롯데프리미엄아울렛 이천점","","37.2422269","127.4000261","정보없음"
"4010625","F.G.F 현대프리미엄아울렛 김포점","","37.5972369","126.7852336","정보없음"
"4013188","나이키 롯데월드타워점","","37.5137130","127.1043018","정보없음"
"2927404","다이소 서울시청광장점","","37.5647034","126.9766271","정보없음"
"4013067","S.T.Dupont 신세계백화점 강남점","","37.5039352","127.0024130","정보없음"
"4009612","모노로그 제주중앙지하상가점","","33.5128377","126.5244401","정보없음"
"801285","AK플라자 평택","","36.9918975","127.0832887","정보없음"
"4009610","디즈니골프 제주중앙지하상가점","","33.5128377","126.5244401","정보없음"
"4009611","그린조이 제주중앙지하상가점","","33.5128377","126.5244401","정보없음"
"3305767","휴고보스 신세계사이먼프리미엄 아울렛 제주점","","33.3049727","126.3163520","정보없음"
"2907796","다이나핏코리아 신세계사이먼프리미엄아울렛 파주점","","37.7693512","126.6953853","정보없음"
"3307493","르꼬끄스포르티브 신세계사이먼프리미엄아울렛 파주점","","37.7693512","126.6953853","정보없음"
"2904560","폴로랄프로렌 신세계사이먼프리미엄아울렛 파주점","","37.7693512","126.6953853","정보없음"
"2924392","본지플로어 현대아울렛 동대문점","","37.5687346","127.0076665","정보없음"
"2903559","준지남성 여성 신세계사이먼프리미엄아울렛 파주점","","37.7693512","126.6953853","정보없음"
"690557","신세계사이먼 여주 프리미엄 아울렛","","37.2420000","127.6128000","정보없음"
"529493","김일성 별장","","38.4724805","128.4431427","정보없음"
"1039170","옥토끼우주센터","","37.6742000","126.4871553","정보없음"
"1940660","부소담악(추소정)","","36.3522365","127.5636944","정보없음"
"2613673","삼척장미공원","","37.4323410","129.1796597","정보없음"
"2536133","매미성","","34.9682131","128.7050934","정보없음"
"1919548","순천만국가정원","","34.9286032","127.4996986","정보없음"
"126313","우수영관광지","","34.5726489","126.3101440","정보없음"
"2911498","롯데백화점 안산점","","37.3180026","126.8345004","정보없음"
"129218","백제불교최초도래지","","35.3619979","126.4303070","정보없음"
"126419","다산초당","","34.5806497","126.7450730","정보없음"
"128992","마량미항","","34.4489330","126.8189860","정보없음"
"127664","최참판댁","","35.1555940","127.6880900","정보없음"
"129489","남해독일마을","","34.8000475","128.0383402","정보없음"
"2633903","젊은달 와이파크","","37.2739620","128.2691160","정보없음"
"3015170","참샘허브나라","","35.4524143","128.7052759","정보없음"
"662268","피나클랜드 수목원","","36.8724692","126.9263293","정보없음"
"3018216","강천섬유원지","","37.2339000","127.6956000","정보없음"
"3018384","노동 저수지","","35.4201485","126.7080657","정보없음"
"2758212","병술만어촌체험마을","","36.4733212","126.3443157","정보없음"
"3018842","갈멜정원","","34.7015600","127.0535930","정보없음"
"3035114","죽산수변공원","","34.9707365","126.6272932","정보없음"
"2714659","보롬왓","","33.4134934","126.7524940","정보없음"
"2718736","코리아플라워파크","","36.5011316","126.3367907","정보없음"
"127644","울산대공원","","35.5316566","129.2935190","정보없음"
"2714222","스누피가든","","33.4433716","126.7786050","정보없음"
"3026443","나주 우습제","","34.9375867","126.5827100","정보없음"
"128611","서울숲","","37.5430716","127.0417984","정보없음"
"2606236","옥연지 송해공원","","35.7803312","128.4802806","정보없음"
"3022743","화정중앙공원","","37.6309452","126.8318110","정보없음"
"3022888","양지파인펫파크","","37.2143230","127.2958760","정보없음"
"3078282","비비하우스","","37.6622480","126.8044630","정보없음"
"128074","안흥찐빵마을","","37.4090666","128.1526686","정보없음"
"3083766","가평카페109","","37.7746651","127.3600733","정보없음"
"3023316","양성계곡","","37.1099304","127.2176170","정보없음"
"3025977","익산산림조합산림문화체험관","","36.0586205","126.8894597","정보없음"
"3025007","비룡담 저수지","","37.1874000","128.2027000","정보없음"
"3026041","신흥근린공원","","35.9456740","126.9904760","정보없음"
"125447","넓은들 학원농장","","35.3753540","126.5433006","정보없음"
"4011845","갤럭시 신세계백화점 사우스시티점","","37.3249887","127.1081185","정보없음"
"4011848","발렌티노 신세계백화점 사우스시티점","","37.3249887","127.1081185","정보없음"
"4011853","델보 신세계백화점 사우스시티점","","37.3249887","127.1081185","정보없음"
"4011855","유니클로 스타필드마켓 죽전점","","37.3253340","127.1099743","정보없음"
"4011858","코치 롯데프리미엄아울렛 의왕점","","37.3758169","127.0102773","정보없음"
"4011863","송지오 롯데 프리미엄 아울렛 의왕점","","37.3758169","127.0102773","정보없음"
"4011864","산드로 롯데프리미엄아울렛 의왕점","","37.3758169","127.0102773","정보없음"
"4011865","윌슨 롯데프리미엄아울렛 의왕점","","37.3758169","127.0102773","정보없음"
"4011866","아이더 롯데프리미엄아울렛 의왕점","","37.3758169","127.0102773","정보없음"
"4011867","노스페이스 롯데프리미엄아울렛 의왕점","","37.3758169","127.0102773","정보없음"
"4011868","스케쳐스 롯데프리미엄아울렛 의왕점","","37.3758169","127.0102773","정보없음"
"4011870","스노우피크 롯데프리미엄아울렛 의왕점","","37.3758169","127.0102773","정보없음"
"4011871","살로몬 롯데프리미엄아울렛 의왕점","","37.3758169","127.0102773","정보없음"
"4011872","아틀리에드아페쎄 롯데프리미엄아울렛 의왕점","","37.3758169","127.0102773","정보없음"
"4011873","휴고보스 롯데프리미엄아울렛 의왕점","","37.3758169","127.0102773","정보없음"
"4011878","페라가모 신세계백화점 의정부점","","37.7379563","127.0458722","정보없음"
"4011882","아트박스 중계점","","37.6512103","127.0764712","정보없음"
"4011883","롯데하이마트 창동점","","37.6529212","127.0521201","정보없음"
"4011886","스톤헨지 신세계백화점 의정부점","","37.7379563","127.0458722","정보없음"
"4011887","롯데하이마트 쌍문점","","37.6533882","127.0370928","정보없음"
"4011889","골프프렌드 골때려골프 도봉창동점","","37.6593162","127.0416521","정보없음"
"4011892","삼성스토어 이천증포","","37.2882830","127.4545166","정보없음"
"4011894","스노우피크 롯데프리미엄아울렛 이천점","","37.2422269","127.4000261","정보없음"
"4011895","MLB 롯데프리미엄아울렛 이천점","","37.2422269","127.4000261","정보없음"
"4011897","비비안 롯데프리미엄아울렛 이천점","","37.2422269","127.4000261","정보없음"
"4011898","MANITSUIT 롯데프리미엄아울렛 이천점","","37.2422269","127.4000261","정보없음"
"4011899","스파이더 롯데프리미엄아울렛 이천점","","37.2422269","127.4000261","정보없음"
"4011902","K2 롯데프리미엄아울렛 이천점","","37.2422269","127.4000261","정보없음"
"4011905","어뉴골프 롯데프리미엄아울렛 이천점","","37.2422269","127.4000261","정보없음"
"4011906","브룩스브라더스 롯데프리미엄아울렛 이천점","","37.2422269","127.4000261","정보없음"
"4011907","닥스ACC 롯데프리미엄아울렛 이천점","","37.2422269","127.4000261","정보없음"
"4011909","뉴에라 롯데프리미엄아울렛 이천점","","37.2422269","127.4000261","정보없음"
"4011910","아레나 롯데프리미엄아울렛 이천점","","37.2422269","127.4000261","정보없음"
"4011913","아디다스골프 롯데프리미엄아울렛 이천점","","37.2422269","127.4000261","정보없음"
"4011914","캉골키즈 롯데프리미엄아울렛 이천점","","37.2422269","127.4000261","정보없음"
"4011915","데상트골프 롯데프리미엄아울렛 이천점","","37.2422269","127.4000261","정보없음"
"4011918","기비키이스 롯데프리미엄아울렛 이천점","","37.2422269","127.4000261","정보없음"
"4011923","쉬즈미스 롯데프리미엄아울렛 파주점","","37.7180926","126.6925491","정보없음"
"4011924","APC 롯데프리미엄아울렛 파주점","","37.7196781","126.6931710","정보없음"
"4011927","커버낫 롯데프리미엄아울렛 파주점","","37.7196781","126.6931710","정보없음"
"4011933","오니츠카타이거 신세계사이먼프리미엄아울렛 파주점","","37.7693512","126.6953853","정보없음"
"4011936","스노우피크 신세계사이먼프리미엄아울렛 파주점","","37.7693512","126.6953853","정보없음"
"2913339","뉴에라 신세계사이먼프리미엄아울렛 시흥점","","37.3796756","126.7369853","정보없음"
"2928425","크록스 롯데몰 광명점","","37.4243110","126.8827800","정보없음"
"2925833","엠엘비 신세계사이먼프리미엄아울렛 파주점","","37.7693512","126.6953853","정보없음"
"4005897","데이트안경원","","37.8798518","127.7267719","정보없음"
"2914394","롯데하이마트 산본점","","37.3728564","126.9371263","정보없음"
"2931786","골든듀 AK플라자 평택점","","36.9918975","127.0832887","정보없음"
"4008808","가든뷰","","37.5690918","126.8367840","정보없음"
"3074308","정부대전청사 자연마당","","36.3588000","127.3850000","정보없음"
"2469441","합천 영상테마파크","","35.5484532","128.0730563","정보없음"
"2705409","강아지숲","","37.7364332","127.6620193","정보없음"
"2714545","등대해수욕장","","38.2146440","128.5983320","정보없음"
"3111794","스타필드 고양","","37.6469771","126.8947780","정보없음"
"3112053","파로호꽃섬","","38.1167186","127.9884611","정보없음"
"3112126","드림서프라운지","","35.1466188","129.1132535","정보없음"
"3112168","아우아우","","33.4878397","126.6931877","정보없음"
"3114506","다송무지개매화마을","","36.0374047","126.9557547","정보없음"
"3330180","행땅","","37.6337444","126.8516373","정보없음"
"3331534","나무와열매 체험농장","","33.2581949","126.3080072","정보없음"
"3336122","순천 오천그린광장","","34.9331980","127.4979710","정보없음"
"3336134","독독","","37.4589846","126.4015010","정보없음"
"3336140","순천 반려동물 문화센터","","34.9486609","127.4974247","정보없음"
"4011378","풍류 스노우","","37.5089092","127.0327661","정보없음"
"4026624","신사웰약국","","37.5150206","127.0203541","정보없음"
"4024888","안경진정성 이마트 강릉점","","37.7705532","128.9227097","정보없음"
"3350880","카페윤","","35.1819920","129.2112380","정보없음"
"3378995","고싸움놀이테마파크","","35.0695028","126.8354834","정보없음"
"3355750","현대프리미엄아울렛 대전점","","36.4234369","127.3985168","정보없음"
"3302874","선샤인밀양테마파크","","35.5005014","128.8334464","정보없음"
"754052","석촌호수","","37.5079160","127.0989440","정보없음"
"3371784","하림펫푸드 해피댄스스튜디오","","36.6215156","127.1299860","정보없음"
"317559","사성암(구례)","","35.1801261","127.4806049","정보없음"
"4011938","윌슨 신세계사이먼프리미엄아울렛 파주점","","37.7693512","126.6953853","정보없음"
"4011939","바바라 신세계사이먼프리미엄아울렛 파주점","","37.7693512","126.6953853","정보없음"
"4011940","살로몬 신세계사이먼프리미엄아울렛 파주점","","37.7693512","126.6953853","정보없음"
"4011941","어메이징크리 신세계사이먼프리미엄아울렛 파주점","","37.7693512","126.6953853","정보없음"
"4011943","캉골키즈 신세계사이먼프리미엄아울렛 파주점","","37.7693512","126.6953853","정보없음"
"4011944","에고이스트 신세계사이먼프리미엄아울렛 파주점","","37.7693512","126.6953853","정보없음"
"4011947","라이프워크 신세계사이먼프리미엄아울렛 파주점","","37.7693512","126.6953853","정보없음"
"4011950","안다르 롯데프리미엄아울렛 파주점","","37.7178193","126.6937616","정보없음"
"4011951","캘빈클라인진 롯데프리미엄아울렛 파주점","","37.7178193","126.6937616","정보없음"
"4011952","유니클로 롯데프리미엄아울렛 파주점","","37.7178193","126.6937616","정보없음"
"4012020","ABC마트 SE 현대프리미엄아울렛 스페이스원점","","37.6162579","127.1524291","정보없음"
"4012021","라이프워크 현대프리미엄아울렛 스페이스원점","","37.6162579","127.1524291","정보없음"
"4012022","엄브로 현대프리미엄아울렛 스페이스원점","","37.6162579","127.1524291","정보없음"
"4012024","레이밴 현대프리미엄아울렛 스페이스원점","","37.6162579","127.1524291","정보없음"
"4012026","PXG 현대프리미엄아울렛 스페이스원점","","37.6162579","127.1524291","정보없음"
"4012028","아이더 현대프리미엄아울렛 스페이스원","","37.6162579","127.1524291","정보없음"
"4012029","내셔널지오그래픽키즈 현대프리미엄아울렛 스페이스원점","","37.6162579","127.1524291","정보없음"
"4012030","플랫폼플레이스 현대프리미엄아울렛 스페이스원점","","37.6162579","127.1524291","정보없음"
"4012034","캉골키즈 현대프리미엄아울렛 스페이스원점","","37.6162579","127.1524291","정보없음"
"4012035","리틀그라운드 현대프리미엄아울렛 스페이스원점","","37.6162579","127.1524291","정보없음"
"4012042","몰리스펫샵 스타필드 시티 부천점","","37.4615202","126.8139403","정보없음"
"4012045","아트박스 김해율하점","","35.1719281","128.8147334","정보없음"
"4012048","프라다 현대백화점 중동점","","37.5043163","126.7620827","정보없음"
"4012051","미꼬 현대백화점 중동점","","37.5043163","126.7620827","정보없음"
"4012055","닥스셔츠 현대백화점 중동점","","37.5043163","126.7620827","정보없음"
"4012078","듀퐁부틱 롯데프리미엄아울렛 김해점","","35.1850621","128.8295964","정보없음"
"4012099","로에베 현대백화점 판교점","","37.3927937","127.1120171","정보없음"
"4012100","프라다 남성 현대백화점 판교점","","37.3927937","127.1120171","정보없음"
"4012101","마시모두띠 현대백화점 판교점","","37.3927937","127.1120171","정보없음"
"4012132","롯데하이마트 사천점","","35.0807250","128.0836770","정보없음"
"4012133","롯데하이마트 삼천포점","","34.9359027","128.0777451","정보없음"
"4012134","LG전자 베스트샵 삼천포점","","34.9369358","128.0783518","정보없음"
"4012135","삼성스토어 삼천포","","34.9391840","128.0796199","정보없음"
"4012136","LG전자 베스트샵 양산본점","","35.3262807","129.0156044","정보없음"
"4012137","롯데하이마트 웅상롯데마트점","","35.4125911","129.1669832","정보없음"
"4012138","롯데하이마트 양산점","","35.3397194","129.0351642","정보없음"
"4012139","LG전자 베스트샵 덕계점","","35.3739843","129.1538130","정보없음"
"4012140","LG전자 베스트샵 진주시청점","","35.1796779","128.1163044","정보없음"
"4012145","MLB복합관 롯데몰 진주점","","35.1801540","128.1398413","정보없음"
"4012151","라이프워크 메가스토어 진주점","","35.1329842","128.0992445","정보없음"
"4012152","LG전자 베스트샵 진주성점","","35.1911876","128.0789017","정보없음"
"4012154","폴로랄프로렌 남성 갤러리아백화점 진주점","","35.1967109","128.0823222","정보없음"
"4012155","아트박스 마산경남대점","","35.1796736","128.5580145","정보없음"
"4012157","노벨라 신세계백화점 마산점","","35.2195839","128.5865907","정보없음"
"4012159","LG전자 베스트샵 합포점","","35.1952046","128.5704011","정보없음"
"4012160","LG전자 베스트샵 마산본점","","35.2295175","128.5752075","정보없음"
"4012161","아트박스 마산합성점","","35.2377481","128.5825393","정보없음"
"4012162","엠픽 창원점","","35.2231263","128.6848889","정보없음"
"4012164","정관장 더시티세븐점","","35.2396668","128.6544087","정보없음"
"4012166","화미주헤어 시티세븐 창원점","","35.2396668","128.6544087","정보없음"
"4011879","2001아울렛 중계점","","37.6412865","127.0679074","정보없음"
"4012810","두타몰","","37.5688849","127.0087751","정보없음"
"2911760","휠라코리아 롯데프리미엄아울렛 김해점","","35.1850621","128.8295964","정보없음"
"2899135","로가디스아울렛 롯데프리미엄아울렛 김해점","","35.1850621","128.8295964","정보없음"
"3306920","갤럭시라이프스타일 현대아울렛 동대문점","","37.5687346","127.0076665","정보없음"
"4012845","뉴코아아울렛 울산점","","35.5386257","129.3304728","정보없음"
"4011174","아리따움 서면지하도상가점","","35.1552371","129.0591398","정보없음"
"2894043","이니스프리 제주하우스","","33.3066750","126.2908930","정보없음"
"2911541","예거르쿨트르 롯데백화점 본점 에비뉴엘","","37.5642451","126.9817815","정보없음"
"2913709","홀리카홀리카 서면지하점","","35.1552371","129.0591398","정보없음"
"2902389","이니스프리 부산서면역점","","35.1552371","129.0591398","정보없음"
"2910951","나이키 유나이트 롯데아울렛 청주점","","36.6451690","127.4217413","정보없음"
"2922487","롤렉스 갤러리아 타임월드점","","36.3519543","127.3781670","정보없음"
"2924139","아프리카안경 두타몰점","","37.5688849","127.0087751","정보없음"
"2923684","프로스펙스 세이브존 해운대점","","35.1624027","129.1612475","정보없음"
"2928950","몰리스펫샵 신세계 센텀시티몰","","35.1698614","129.1282901","정보없음"
"2903149","로저비비에 신세계백화점 센텀시티점","","35.1688178","129.1295233","정보없음"
"2925881","클라랑스 타임빌라스 수원점","","37.2641627","126.9973855","정보없음"
"2917193","IWC 샤프하우젠 갤러리아백화점 명품관 EAST점","","37.5279182","127.0418317","정보없음"
"4012236","슈마커 대구성서점","","35.8374371","128.4908934","정보없음"
"4012237","삼성스토어 상인역","","35.8194937","128.5380137","정보없음"
"4012268","금강제화 현대백화점 더현대 대구","","35.8666296","128.5906257","정보없음"
"4012292","정관장 노은점","","36.3744545","127.3184074","정보없음"
"4012294","정관장 송강점","","36.4349815","127.3879786","정보없음"
"4012295","다미아니 대전신세계 Art&Science점","","36.3751818","127.3817654","정보없음"
"4012297","블랑팡 대전신세계 Art&Science점","","36.3751818","127.3817654","정보없음"
"4012298","로저비비에 대전신세계 Art&Science점","","36.3751818","127.3817654","정보없음"
"4012314","코오롱스포츠 대전유성점","","36.3613518","127.3356578","정보없음"
"4012324","헬렌카민스키 현대프리미엄아울렛 대전점","","36.4234369","127.3985168","정보없음"
"4012325","세터 현대프리미엄아울렛 대전점","","36.4234369","127.3985168","정보없음"
"4012338","왁&엘로드 현대프리미엄아울렛 대전점","","36.4247422","127.3980582","정보없음"
"4012340","크록스 대전은행점","","36.3279186","127.4278119","정보없음"
"4012345","아트박스 부산대점","","35.2311534","129.0856694","정보없음"
"4012373","끌로디피에로 롯데프리미엄아울렛 동부산점","","35.1923230","129.2124953","정보없음"
"4012375","분크 롯데프리미엄아울렛 동부산점","","35.1923230","129.2124953","정보없음"
"4012471","롯데하이마트 남양점","","37.2072335","126.8113797","정보없음"
"4012475","마시모두띠 롯데백화점 동탄점","","37.2006664","127.0982031","정보없음"
"4012477","톰포드 롯데백화점 동탄점","","37.2006664","127.0982031","정보없음"
"4012479","휴고보스 롯데백화점 동탄점","","37.2006664","127.0982031","정보없음"
"4012480","유니클로 롯데백화점 동탄점","","37.2006664","127.0982031","정보없음"
"4012482","COS 롯데백화점 동탄점","","37.2006664","127.0982031","정보없음"
"4012486","아트박스 경희대점","","37.5926905","127.0527132","정보없음"
"4012490","우림에프엠지","","37.4921759","126.9242713","정보없음"
"4012491","삼성스토어 상도","","37.5053103","126.9456393","정보없음"
"4012492","아트박스 중앙대점","","37.5072688","126.9599804","정보없음"
"4012513","LG전자 베스트샵 염리점","","37.5461579","126.9452191","정보없음"
"4012550","포터리 합정","","37.5514445","126.9159616","정보없음"
"4012557","엠플레이그라운드 홍대3호점","","37.5558321","126.9246674","정보없음"
"4012559","닥터마틴 홍대점","","37.5506008","126.9214294","정보없음"
"4012579","착한구두 홍대 플래그쉽 스토어","","37.5552432","126.9257876","정보없음"
"4012584","레노마 NC백화점 송파점","","37.4776148","127.1249618","정보없음"
"4012585","미소페 현대아울렛 가든파이브점","","37.4776148","127.1249618","정보없음"
"4012590","오렌즈 현대백화점 목동점","","37.5273218","126.8746191","정보없음"
"4012591","듀퐁 현대백화점 목동점","","37.5273218","126.8746191","정보없음"
"4012592","포멜라토 현대백화점 목동점","","37.5273218","126.8746191","정보없음"
"4012594","삼성스토어 현대백화점 목동점","","37.5273218","126.8746191","정보없음"
"4012599","삼성스토어 신정","","37.5210896","126.8550455","정보없음"
"4012602","LG전자 베스트샵 목동점","","37.5243521","126.8743261","정보없음"
"4012609","정관장 문래본점","","37.5157536","126.8875455","정보없음"
"4012610","코지마 롯데하이마트 신길점","","37.5050139","126.9102849","정보없음"
"4012612","토즈 현대백화점 더현대 서울","","37.5251913","126.9291128","정보없음"
"4012618","스톤헨지 현대백화점 더현대 서울","","37.5251913","126.9291128","정보없음"
"4012621","데상트 타임스퀘어점","","37.5172333","126.9037160","정보없음"
"4012623","레고스토어 타임스퀘어점","","37.5172333","126.9037160","정보없음"
"4012625","마인드브릿지 타임스퀘어점","","37.5172333","126.9037160","정보없음"
"4012627","미즈노 타임스퀘어점","","37.5172333","126.9037160","정보없음"
"4012628","카카오프렌즈 타임스퀘어점","","37.5172333","126.9037160","정보없음"
"4012630","몽블랑 신세계백화점 타임스퀘어점","","37.5171900","126.9055671","정보없음"
"4012632","불가리 신세계백화점 타임스퀘어점","","37.5171900","126.9055671","정보없음"
"4012635","이미스 플래그십 스토어 한남","","37.5334389","127.0019854","정보없음"
"4012648","레이브 한남플래그십","","37.5362639","126.9995129","정보없음"
"4012650","이솝 한남","","37.5378876","127.0010570","정보없음"
"4012655","레스트앤레크레이션 한남","","37.5369571","127.0012964","정보없음"
"4012659","러브이즈트루 플래그쉽 스토어","","37.5356178","127.0003703","정보없음"
"4012660","헬로선라이즈 한남","","37.5357148","127.0008438","정보없음"
"4012665","아모레 용산","","37.5287912","126.9686736","정보없음"
"4012666","스노우피크 롯데아울렛 서울역점","","37.5287912","126.9686736","정보없음"
"4012667","모조에스핀 롯데아울렛 서울역점","","37.5548376","126.9717326","정보없음"
"4012668","온앤온 롯데아울렛 서울역점","","37.5548376","126.9717326","정보없음"
"4012679","블랙야크 베이스캠프 북한산점","","37.6550967","126.9498728","정보없음"
"4012680","삼성스토어 수색","","37.5808032","126.8969684","정보없음"
"4012682","정관장&동인비 LOUNGE1899 은평뉴타운본점","","37.6386516","126.9190815","정보없음"
"4012684","네파 롯데몰 은평점","","37.6375367","126.9179003","정보없음"
"4012685","k2 롯데몰 은평점","","37.6375367","126.9179003","정보없음"
"4012687","스케쳐스 롯데몰 은평점","","37.6375367","126.9179003","정보없음"
"4012688","교보문고 롯데몰 은평점","","37.6375367","126.9179003","정보없음"
"4012690","블랙야크 롯데몰 은평점","","37.6375367","126.9179003","정보없음"
"4012694","슈마커플러스 대학로점","","37.5833761","127.0009589","정보없음"
"4012698","티젬","","37.5727329","126.9922789","정보없음"
"4012705","호수약국","","37.5725615","126.9804738","정보없음"
"4012706","경은상사","","37.5727635","126.9879025","정보없음"
"4012745","레고 롯데백화점 본점 영플라자","","37.5634868","126.9815302","정보없음"
"2916209","엘레강스핸드백 뉴코아아울렛 울산점","","35.5386257","129.3304728","정보없음"
"4012811","메르시브라운 두타몰점","","37.5688849","127.0087751","정보없음"
"4011953","멀티와이컨셉 롯데프리미엄아울렛 파주점","","37.7178193","126.6937616","정보없음"
"2931812","더아이잗컬렉션 롯데몰 광교점","","37.2866697","127.0554484","정보없음"
"4012908","닥스ACC 현대프리미엄아울렛 송도점","","37.3816291","126.6579170","정보없음"
"4012909","블랙야크 현대프리미엄아울렛 송도점","","37.3816291","126.6579170","정보없음"
"4012910","교보문고 현대프리미엄아울렛 송도점","","37.3816291","126.6579170","정보없음"
"4012915","쉬즈미스 스퀘어원점","","37.4059982","126.6836221","정보없음"
"4012918","라이프워크 스퀘어원점","","37.4059982","126.6836221","정보없음"
"4012921","NBA 스케어원점","","37.4059982","126.6836221","정보없음"
"4012936","에잇세컨즈 LF스퀘어 광양점","","34.9625156","127.5654259","정보없음"
"4012937","골든듀 LF스퀘어 광양점","","34.9625156","127.5654259","정보없음"
"4012944","라이프워크 롯데아울렛 남악점","","34.8036161","126.4646909","정보없음"
"4012945","시슬리 롯데아울렛 남악점","","34.8036161","126.4646909","정보없음"
"4012946","비너스 롯데아울렛 남악점","","34.8036161","126.4646909","정보없음"
"4012947","라인 롯데아울렛 남악점","","34.8036161","126.4646909","정보없음"
"4012948","패션갤러리 롯데아울렛 남악점","","34.8036161","126.4646909","정보없음"
"4012949","아이더 롯데아울렛 남악점","","34.8036161","126.4646909","정보없음"
"4012950","리바이스 롯데아울렛 남악점","","34.8036161","126.4646909","정보없음"
"4012951","블랙야크 롯데아울렛 남악점","","34.8036161","126.4646909","정보없음"
"4012952","다이나핏 롯데아울렛 남악점","","34.8036161","126.4646909","정보없음"
"4012965","미소페 롯데몰 군산점","","35.9764135","126.7391411","정보없음"
"4012966","커버낫 롯데몰 군산점","","35.9764135","126.7391411","정보없음"
"4012967","컬럼비아 롯데몰 군산점","","35.9764135","126.7391411","정보없음"
"4012968","어뉴골프 롯데몰 군산점","","35.9764135","126.7391411","정보없음"
"4012969","리스트 롯데몰 군산점","","35.9764135","126.7391411","정보없음"
"4012970","듀퐁셔츠 롯데몰 군산점","","35.9764135","126.7391411","정보없음"
"4012971","스케쳐스 롯데몰 군산점","","35.9764135","126.7391411","정보없음"
"4012972","래핑차일드 롯데몰 군산점","","35.9764135","126.7391411","정보없음"
"4012997","듀엘 신세계사이먼프리미엄아울렛 제주점","","33.3049727","126.3163520","정보없음"
"4012998","골든듀 신세계사이먼프리미엄아울렛 제주점","","33.3049727","126.3163520","정보없음"
"4013007","휠라키즈 NC백화점 송파점","","37.4776148","127.1249618","정보없음"
"4013009","정관장 종각역본점","","37.5723112","126.9825684","정보없음"
"4013012","페넥 홍대 쇼룸","","37.5506378","126.9208696","정보없음"
"4013024","헤메코 홍대점","","37.5544056","126.9219658","정보없음"
"4013028","닥스 셔츠 현대백화점 신촌점","","37.5560831","126.9358449","정보없음"
"4013035","교보문고 이화여대 교내서점","","37.5644645","126.9502888","정보없음"
"4013038","삼성 강남","","37.4991603","127.0265109","정보없음"
"4013044","골든듀 갤러리 예술의전당점","","37.4802402","127.0142152","정보없음"
"4013046","구구스 반포신세계점","","37.5043279","127.0010883","정보없음"
"4013047","골프존마켓 서초점","","37.4856965","127.0102978","정보없음"
"4013049","골프존마켓 반포점","","37.4986515","126.9954558","정보없음"
"4013051","GBH FLAGSHIP STORE","","37.4885006","126.9971768","정보없음"
"4013052","삼성스토어 서초","","37.4934337","127.0142979","정보없음"
"4013058","블랑팡 신세계백화점 강남점","","37.5039352","127.0024130","정보없음"
"4013061","포멜라토 신세계백화점 강남점","","37.5039352","127.0024130","정보없음"
"4013068","스톤헨지 신세계백화점 강남점","","37.5039352","127.0024130","정보없음"
"4013075","ABC마트 MS 강남엔터식스점","","37.5049267","127.0049499","정보없음"
"4013078","골프존마켓 잠원파스텔점","","37.5096125","127.0098240","정보없음"
"4013080","트리밍버드 성수플래그십스토어","","37.5496769","127.0538726","정보없음"
"4013084","세터하우스 서울숲","","37.5446672","127.0490780","정보없음"
"4013089","블루선 성수점","","37.5471531","127.0427279","정보없음"
"4013090","아카이브앱크아틀리에","","37.5477413","127.0417811","정보없음"
"4013098","오소이","","37.5456047","127.0509648","정보없음"
"4013105","세이버 서울 성수점","","37.5428217","127.0589060","정보없음"
"4013108","우알롱 성수 플래그쉽 스토어","","37.5430665","127.0553679","정보없음"
"4013110","리이 성수점","","37.5436253","127.0510882","정보없음"
"4013113","알로 성수점","","37.5439747","127.0500448","정보없음"
"4013114","이솝 성수","","37.5423764","127.0558038","정보없음"
"4013117","로에일 성수점","","37.5416963","127.0582472","정보없음"
"4013119","뉴뉴랩 성수점","","37.5413764","127.0594043","정보없음"
"4013125","KWANGYA SEOUL","","37.5441547","127.0433578","정보없음"
"4054300","롯데백화점 일산점[면세점(TAX REFUND SHOP)]","","37.6604718","126.7721263","정보없음"
"128792","여좌천(여좌천로망스다리)","","35.1650601","128.6596501","정보없음"
"3072035","성필립보생태마을","","37.3288069","128.3736376","정보없음"
"128803","속초등대전망대","","38.2136625","128.6000662","정보없음"
"2893994","폴로랄프로렌 신세계사이먼프리미엄아울렛 시흥점","","37.3796756","126.7369853","정보없음"
"2894094","풋조이 도산점","","37.5224076","127.0331171","정보없음"
"2894150","나이스클랍 롯데아울렛 남악점","","34.8036161","126.4646909","정보없음"
"2894457","롯데마트 노은점","","36.3843601","127.3215307","정보없음"
"2894458","롯데마트 당진점","","36.9057742","126.6462600","정보없음"
"2894565","롯데마트 사하점","","35.0847835","128.9723100","정보없음"
"2894593","롯데마트 강변점","","37.5357252","127.0956922","정보없음"
"2894632","롯데마트 홍성점","","36.6010390","126.6763179","정보없음"
"2894641","토이저러스 롯데마트 대구율하점","","35.8684630","128.6933309","정보없음"
"2894830","투미 신세계사이먼프리미엄아울렛 시흥점","","37.3796756","126.7369853","정보없음"
"2894866","MLB 가로수길점","","37.5197997","127.0228435","정보없음"
"2894965","락포트 스타필드 고양점","","37.6469771","126.8947781","정보없음"
"4013126","USS2 어스투","","37.5454160","127.0465868","정보없음"
"4013129","아트박스 안암점","","37.5859822","127.0292127","정보없음"
"4013132","롯데하이마트 삼선교점","","37.5912079","127.0125548","정보없음"
"4013133","JnK","","37.5894056","127.0037732","정보없음"
"4013135","롯데하이마트 석관점","","37.6107429","127.0624993","정보없음"
"4013136","팬텀 문정점","","37.4896195","127.1233743","정보없음"
"4013141","골프프렌드골때려골프 송파점","","37.5078547","127.1109347","정보없음"
"4013154","네이처리퍼블릭 롯데백화점 잠실점","","37.5113096","127.0981418","정보없음"
"4013156","삼성스토어 송파","","37.5071094","127.1176204","정보없음"
"4013162","론진 롯데백화점 잠실점","","37.5113096","127.0981418","정보없음"
"4013164","린 롯데백화점 잠실점","","37.5113096","127.0981418","정보없음"
"4013167","교보문고 롯데백화점 잠실점 캐슬플라자","","37.5144273","127.1006114","정보없음"
"4013171","푸마 롯데월드몰점","","37.5137130","127.1043018","정보없음"
"4013177","쇼파드 롯데백화점 잠실 에비뉴엘점","","37.5137130","127.1043018","정보없음"
"4013179","메종 마르지엘라 프래그런스 롯데월드몰점","","37.5137130","127.1043018","정보없음"
"2924614","핑골프 현대아울렛 동대문점","","37.5687346","127.0076665","정보없음"
"4012803","여성 빅사이즈 글램어스 두타몰점","","37.5688849","127.0087751","정보없음"
"4012814","트레블나인 두타몰점","","37.5688849","127.0087751","정보없음"
"4025845","다이소 안국역2호점","","37.5763158","126.9843663","정보없음"
"4012805","앳모먼트 두타몰점","","37.5688849","127.0087751","정보없음"
"4025839","다이소 동대문점","","37.5702774","127.0099782","정보없음"
"4012806","미미 두타몰점","","37.5688849","127.0087751","정보없음"
"4012801","엠엘비 두타몰점","","37.5688849","127.0087751","정보없음"
"4012802","인조이샵 두타몰점","","37.5688849","127.0087751","정보없음"
"4012808","트웰브 두타몰점","","37.5688849","127.0087751","정보없음"
"4012807","스토리 두타몰점","","37.5688849","127.0087751","정보없음"
"4027256","다이소 종로본점","","37.5699036","126.9873599","정보없음"
"2916570","아디다스골프 롯데아울렛 부여점","","36.3071478","126.9022704","정보없음"
"4008790","다이아미 신세계백화점 센텀시티점","","35.1688178","129.1295233","정보없음"
"3306750","엘르이너웨어 뉴코아아울렛 산본점","","37.3581052","126.9331752","정보없음"
"4011475","세르지오타키니 스타필드 수원점","","37.2874453","126.9915746","정보없음"
"4011464","놋토 스타필드 수원점","","37.2874453","126.9915746","정보없음"
"4011482","참약사 수원스타약국 스타필드 수원점","","37.2874453","126.9915746","정보없음"
"4012616","위글위글 현대백화점 더현대 서울","","37.5251913","126.9291128","정보없음"
"4027239","다이소 대학로점","","37.5835933","127.0019465","정보없음"
"2911916","포트메리온 롯데몰 메종 동부산점","","35.1928254","129.2149561","정보없음"
"4008037","토이저러스 롯데마트 동부산점","","35.1923230","129.2124953","정보없음"
"2929205","르꼬끄스포츠 롯데프리미엄아울렛 동부산점","","35.1923230","129.2124953","정보없음"
"2910379","BCBG올앤썬드리 롯데프리미엄아울렛 동부산점","","35.1923230","129.2124953","정보없음"
"2910281","미셸by탠디 롯데프리미엄아울렛 동부산점","","35.1923230","129.2124953","정보없음"
"2907824","언더아머 팩토리 하우스 롯데프리미엄아울렛 동부산점","","35.1923230","129.2124953","정보없음"
"2908961","정관장 한남점","","37.5344843","127.0081924","정보없음"
"2912327","올리브영 동묘앞역점","","37.5729160","127.0162593","정보없음"
"2912331","트윈에뚜왈","","35.1563882","129.0649645","정보없음"
"2912347","올리브영 안양1번가점","","37.3986870","126.9221605","정보없음"
"2912385","아이갤러리 안경원","","37.5156110","127.0522738","정보없음"
"2912404","올리브영 부산대역점","","35.2307915","129.0880198","정보없음"
"2912482","데상트골프 신세계사이먼프리미엄아울렛 시흥점","","37.3796756","126.7369853","정보없음"
"2912519","올리브영 스타필드 시티 부천점","","37.4615202","126.8139403","정보없음"
"2912520","앤드지 신세계사이먼프리미엄아울렛 시흥점","","37.3796756","126.7369853","정보없음"
"2912568","올리브영 광주황금점","","35.1466985","126.9167022","정보없음"
"2912601","올리브영 양재스타클래스점","","37.4851853","127.0358837","정보없음"
"2912753","마이클코어스 신세계사이먼프리미엄아울렛 부산점","","35.3249413","129.2360728","정보없음"
"2912757","K2 신세계사이먼프리미엄아울렛 시흥점","","37.3796756","126.7369853","정보없음"
"2912775","질스튜어트 신세계사이먼프리미엄아울렛 시흥점","","37.3796756","126.7369853","정보없음"
"2912896","유니클로 당진 읍내점","","36.8979213","126.6367662","정보없음"
"2913915","아이리스안경","","37.5406341","127.0676571","정보없음"
"2913951","올리브영 수지중앙점","","37.3230649","127.0949072","정보없음"
"2913971","노스페이스 롯데몰 광명점","","37.4243110","126.8827800","정보없음"
"2913975","듀엘 신세계사이먼프리미엄아울렛 부산점","","35.3249413","129.2360728","정보없음"
"2914079","롯데하이마트 계산점","","37.5386277","126.7341317","정보없음"
"2914081","롯데하이마트 작전점","","37.5249849","126.7216762","정보없음"
"2914123","올리브영 광명하안점","","37.4620332","126.8793709","정보없음"
"2914139","에스콰이어 롯데백화점 센텀시티점","","35.1698534","129.1310697","정보없음"
"2914207","지고트 신세계사이먼프리미엄아울렛 여주점","","37.2459467","127.6123854","정보없음"
"2914234","올리브영 시흥대야점","","37.4418169","126.7914947","정보없음"
"2914266","롯데하이마트 평촌점","","37.3932283","126.9744634","정보없음"
"2914446","롯데하이마트 발안점","","37.1368733","126.9118087","정보없음"
"2914809","롯데하이마트 조치원점","","36.5989702","127.2899536","정보없음"
"2914825","올리브영 대전시청역점","","36.3510363","127.3895332","정보없음"
"2914847","클럽모나코 신세계사이먼프리미엄아울렛 부산점","","35.3249413","129.2360728","정보없음"
"2914886","롯데하이마트 경암점","","35.9811824","126.7326740","정보없음"
"2914888","롯데하이마트 나운점","","35.9634656","126.6907299","정보없음"
"2915028","롯데하이마트 성서점","","35.8510562","128.5094855","정보없음"
"2915031","올리브영 광주수완점","","35.1903840","126.8243265","정보없음"
"2915048","롯데하이마트 경북대점","","35.8972457","128.6141211","정보없음"
"2915151","마쥬 신세계사이먼프리미엄아울렛 부산점","","35.3249413","129.2360728","정보없음"
"4013187","세터 롯데월드몰점","","37.5137130","127.1043018","정보없음"
"4013194","로저비비에 롯데백화점 잠실 에비뉴엘점","","37.5137130","127.1043018","정보없음"
"4013197","삼성스토어 잠실SDS타워","","37.5162978","127.1004678","정보없음"
"4013252","스노우피크 롯데아울렛 부여점","","36.3071478","126.9022704","정보없음"
"4013253","패션갤러리 롯데아울렛 부여점","","36.3071478","126.9022704","정보없음"
"4013254","K2 롯데아울렛 부여점","","36.3071478","126.9022704","정보없음"
"4013255","레고 롯데아울렛 부여점","","36.3071478","126.9022704","정보없음"
"4013257","라이프워크 롯데아울렛 부여점","","36.3071478","126.9022704","정보없음"
"4013274","골든듀 갤러리아백화점 센터시티점","","36.8005640","127.1047263","정보없음"
"4013284","MLB 롯데아울렛 청주점","","36.6451690","127.4217413","정보없음"
"4013286","라이프워크 롯데아울렛 청주점","","36.6451690","127.4217413","정보없음"
"4013288","스파이더 롯데아울렛 청주점","","36.6451690","127.4217413","정보없음"
"4013289","미소페 롯데아울렛 청주점","","36.6451690","127.4217413","정보없음"
"4013290","모조에스핀 롯데아울렛 청주점","","36.6451690","127.4217413","정보없음"
"4013291","스케쳐스 롯데아울렛 청주점","","36.6451690","127.4217413","정보없음"
"4013292","롯데아울렛 청주점","","36.6451690","127.4217413","정보없음"
"4013297","스톤헨지 현대백화점 충청점","","36.6448652","127.4265602","정보없음"
"4013298","랄프로렌칠드런 현대백화점 충청점","","36.6448652","127.4265602","정보없음"
"4024890","스케쳐스 강릉점","","37.7523794","128.8954723","정보없음"
"4024891","아디다스 강릉OFS점","","37.7520388","128.8949681","정보없음"
"4024892","빈폴 강릉점","","37.7517954","128.8946313","정보없음"
"4024894","노스페이스 화이트라벨 강릉점","","37.7533216","128.8959553","정보없음"
"4024895","게스 강릉점","","37.7531172","128.8954402","정보없음"
"4024985","닥스골프 춘천점","","37.8796534","127.7282674","정보없음"
"4025006","올리비아하슬러 춘천명동점","","37.8785814","127.7292403","정보없음"
"4025023","모다아울렛 춘천점","","37.8694788","127.7204770","정보없음"
"4025027","ZARA HOME 스타필드 고양점","","37.6469771","126.8947781","정보없음"
"4025029","오니츠카타이거 스타필드 고양점","","37.6469771","126.8947781","정보없음"
"4025035","시스티나 스타필드 고양점","","37.6469771","126.8947781","정보없음"
"4025037","코드그라피 스타필드 고양점","","37.6469771","126.8947781","정보없음"
"4025038","루디프로젝트 스타필드 고양점","","37.6469771","126.8947781","정보없음"
"4025042","안다르 스타필드 고양점","","37.6469771","126.8947781","정보없음"
"4025045","스케쳐스 롯데아울렛 고양점","","37.6295890","126.8631238","정보없음"
"4025046","템퍼 롯데아울렛 고양점","","37.6295890","126.8631238","정보없음"
"4025095","롯데하이마트 행신역점","","37.6130352","126.8337321","정보없음"
"4025097","한국금거래소 화정덕양점","","37.6336224","126.8327459","정보없음"
"4025117","스케쳐스 롯데아울렛 고양터미널점","","37.6431349","126.7897974","정보없음"
"4025129","네파키즈 롯데아울렛 고양터미널점","","37.6431349","126.7897974","정보없음"
"4025130","디스커버리 롯데아울렛 고양터미널점","","37.6431349","126.7897974","정보없음"
"4025284","닥스핸드백 롯데백화점 일산점","","37.6604718","126.7721263","정보없음"
"4025286","코오롱스포츠 롯데백화점 일산점","","37.6604718","126.7721263","정보없음"
"4025289","아트박스 탄현점","","37.6952127","126.7620116","정보없음"
"4025291","미꼬 현대백화점 킨텍스점","","37.6679852","126.7516476","정보없음"
"4025295","아트박스 AK플라자 광명점","","37.4190190","126.8826236","정보없음"
"4025300","스케쳐스 롯데몰 광명점","","37.4243110","126.8827800","정보없음"
"4025301","캘빈클라인복합관 롯데몰 광명점","","37.4243110","126.8827800","정보없음"
"4025302","갤럭시 롯데몰 광명점","","37.4243110","126.8827800","정보없음"
"4025307","스노우피크 롯데백화점 구리점","","37.6027360","127.1437961","정보없음"
"4025310","미셸BY탠디 롯데아울렛 구리점","","37.6118621","127.1405452","정보없음"
"4025312","버커루 롯데아울렛 구리점","","37.6118621","127.1405452","정보없음"
"4025317","래핑차일드 현대프리미엄아울렛 김포점","","37.5972369","126.7852336","정보없음"
"4025318","마크앤로나 현대프리미엄아울렛 김포점","","37.5972369","126.7852336","정보없음"
"4025324","마리떼프랑소와저버 현대프리미엄아울렛 김포점","","37.5972369","126.7852336","정보없음"
"4025326","아크테릭스 현대프리미엄아울렛 김포점","","37.5972369","126.7852336","정보없음"
"4025327","캘빈클라인진 현대프리미엄아울렛 김포점","","37.5972369","126.7852336","정보없음"
"4025328","커버낫 현대프리미엄아울렛 김포점","","37.5972369","126.7852336","정보없음"
"4025330","피엘라벤 현대프리미엄아울렛 김포점","","37.5972369","126.7852336","정보없음"
"4025331","노브랜드 김포운양점","","37.6555684","126.6840442","정보없음"
"4025332","대한투자금거래소 김포한강본점","","37.6444424","126.6272519","정보없음"
"4025335","데상트스포츠 현대프리미엄아울렛 스페이스원점","","37.6162579","127.1524291","정보없음"
"4025337","제이에스티나 현대프리미엄아울렛 스페이스원점","","37.6162579","127.1524291","정보없음"
"4025351","템퍼 현대프리미엄아울렛 스페이스원점","","37.6162579","127.1524291","정보없음"
"4025360","시호비전 이마트 부천점","","37.4840383","126.7826489","정보없음"
"4025361","노브랜드 스타필드 시티 부천점","","37.4615202","126.8139403","정보없음"
"4025365","캉골 스타필드 시티 부천점","","37.4615202","126.8139403","정보없음"
"2923982","뉴발란스 신세계사이먼프리미엄아울렛 시흥점","","37.3796756","126.7369853","정보없음"
"2923983","타임 신세계사이먼프리미엄아울렛 시흥점","","37.3796756","126.7369853","정보없음"
"2923989","노스페이스화이트라벨 롯데백화점 건대스타시티점","","37.5390374","127.0714321","정보없음"
"2923992","엄브로 롯데백화점 건대스타시티점","","37.5390374","127.0714321","정보없음"
"4025367","아트박스 부천상동점","","37.5061585","126.7563820","정보없음"
"4025368","COS 현대백화점 중동점 유플렉스","","37.5044768","126.7608217","정보없음"
"4025372","MLB 부천점","","37.4865030","126.7836042","정보없음"
"4025373","ABC마트 SE 뉴코아아울렛 부천점","","37.5041447","126.7567218","정보없음"
"4025381","리모와 현대백화점 판교점","","37.3927937","127.1120171","정보없음"
"4025383","예거르쿨트르 현대백화점 판교점","","37.3927937","127.1120171","정보없음"
"4025384","듀퐁셔츠 현대백화점 판교점","","37.3927937","127.1120171","정보없음"
"4025386","코치 AK플라자 분당점","","37.3851022","127.1227031","정보없음"
"4025389","ABC마트 ST 성남신흥점","","37.4409256","127.1463026","정보없음"
"4025395","골든구스 타임빌라스 수원점","","37.2641627","126.9973855","정보없음"
"4025397","LF아울렛 서수원점","","37.2849412","126.9682542","정보없음"
"4025401","JAJU 엘포트몰 광교점","","37.2870876","127.0577814","정보없음"
"4025407","아레나 롯데몰 광교점","","37.2866697","127.0554484","정보없음"
"4025408","와이드앵글 롯데몰 광교점","","37.2866697","127.0554484","정보없음"
"4025411","핑 롯데몰 광교점","","37.2866697","127.0554484","정보없음"
"4025413","템퍼 롯데몰 광교점","","37.2866697","127.0554484","정보없음"
"4025415","다비치안경 광교중앙역점","","37.2858340","127.0537224","정보없음"
"4025418","아트박스 영통점","","37.2529505","127.0752964","정보없음"
"4025421","마시모두띠 스타필드 수원점","","37.2874453","126.9915746","정보없음"
"4025425","쉬즈미스 스타필드 수원점","","37.2874453","126.9915746","정보없음"
"4025426","스파오 스타필드 수원점","","37.2874453","126.9915746","정보없음"
"4025427","캉골키즈 스타필드 수원점","","37.2874453","126.9915746","정보없음"
"4025431","코드그라피 스타필드 수원점","","37.2874453","126.9915746","정보없음"
"4025434","루디프로젝트 스타필드 수원점","","37.2874453","126.9915746","정보없음"
"4025435","말본골프 스타필드 수원점","","37.2874453","126.9915746","정보없음"
"4025440","스파오 AK플라자 수원점","","37.2655921","127.0001799","정보없음"
"4025441","팔달문올리비아약국","","37.2763992","127.0168899","정보없음"
"4025442","원트 수원역점","","37.2674005","127.0015843","정보없음"
"4025450","말본골프 신세계사이먼프리미엄아울렛 시흥점","","37.3796756","126.7369853","정보없음"
"4027213","다이소 서울역점","","37.5548376","126.9717326","정보없음"
"2911883","듀퐁부틱 롯데프리미엄아울렛 동부산점","","35.1923230","129.2124953","정보없음"
"3555995","올리브영 포항중앙점","","36.0377486","129.3647786","정보없음"
"3555821","폴더 경주점","","35.8418491","129.2131051","정보없음"
"2929554","모다아울렛 경주포항점","","35.9164229","129.2443602","정보없음"
"2928494","테일러메이드 현대프리미엄아울렛 송도점","","37.3816291","126.6579170","정보없음"
"2901193","나이키팩토리스토어 현대프리미엄아울렛 송도점","","37.3816291","126.6579170","정보없음"
"4011812","오렌즈 스타옵틱 현대아울렛 가산점","","37.4776190","126.8890553","정보없음"
"2930537","요기보 스타필드 고양점","","37.6469771","126.8947781","정보없음"
"4008310","아디다스 롯데몰 진주점","","35.1801540","128.1398413","정보없음"
"2923247","뉴발란스 LF스퀘어 인천점","","37.4186618","126.6689811","정보없음"
"4008247","에잇세컨즈 디큐브거제백화점","","34.8910558","128.6164020","정보없음"
"4008236","비비안 스타필드 시티 위례점","","37.4801357","127.1484041","정보없음"
"2925389","솔리드옴므 신세계사이먼프리미엄아울렛 파주점","","37.7693512","126.6953853","정보없음"
"4027197","다이소 이태원점","","37.5345949","126.9901706","정보없음"
"2908897","맨온더분 신세계사이먼프리미엄아울렛 파주점","","37.7693512","126.6953853","정보없음"
"2894982","로가디스아울렛 신세계사이먼프리미엄아울렛 파주점","","37.7693512","126.6953853","정보없음"
"2910715","핑 골프 신세계사이먼프리미엄아울렛 파주점","","37.7693512","126.6953853","정보없음"
"2907556","헤지스 신세계사이먼프리미엄아울렛 파주점","","37.7693512","126.6953853","정보없음"
"2925980","신세계사이먼프리미엄아울렛 파주점","","37.7693512","126.6953853","정보없음"
"2925692","레노마 신세계사이먼프리미엄아울렛 파주점","","37.7693512","126.6953853","정보없음"
"2930882","JAJU 신세계사이먼프리미엄아울렛 파주점","","37.7693512","126.6953853","정보없음"
"2931833","닥스 신세계사이먼프리미엄아울렛 파주점","","37.7693512","126.6953853","정보없음"
"2930794","페트레이 현대프리미엄아울렛 송도점","","37.3816291","126.6579170","정보없음"
"4012906","루이독 쁘르 미얌이얌 현대프리미엄아울렛 송도점","","37.3816291","126.6579170","정보없음"
"2931632","토박스 현대프리미엄아울렛 송도점","","37.3816291","126.6579170","정보없음"
"2914178","언더아머 팩토리하우스 현대프리미엄아울렛 송도점","","37.3816291","126.6579170","정보없음"
"2930920","데상트골프 신세계사이먼프리미엄아울렛 파주점","","37.7693512","126.6953853","정보없음"
"4027177","다이소 영등포역점","","37.5179856","126.9062154","정보없음"
"4012411","NC백화점 송파점","","37.4776148","127.1249618","정보없음"
"4011057","프랫안경 롯데백화점 구리점","","37.6027360","127.1437961","정보없음"
"4027161","다이소 여의도점","","37.5232244","126.9260155","정보없음"
"4012548","합정스타약국 메세나폴리스점","","37.5515008","126.9139502","정보없음"
"4012547","하파크리스틴 올리브영 메세나폴리스점","","37.5515008","126.9139502","정보없음"
"4012545","이화메세나약국 메세나폴리스점","","37.5515008","126.9139502","정보없음"
"4012544","MUJI 메세나폴리스점","","37.5515008","126.9139502","정보없음"
"4012538","프래프 AK플라자 홍대","","37.5577458","126.9264983","정보없음"
"4025820","다이소 송파구청점","","37.5146105","127.1074383","정보없음"
"4025816","다이소 송파파크하비오점","","37.4796871","127.1249798","정보없음"
"4012539","버터 AK플라자 홍대","","37.5577458","126.9264983","정보없음"
"4025815","다이소 정릉시장점","","37.6054439","127.0111582","정보없음"
"4012689","아이피아 롯데몰 은평점","","37.6375367","126.9179003","정보없음"
"3307756","숨37도 롯데백화점 관악점","","37.4904955","126.9249817","정보없음"
"4012587","글라스샵 염창역점","","37.5466903","126.8751639","정보없음"
"4012589","골프프렌드 골때려골프 목동점","","37.5388549","126.8639562","정보없음"
"4012598","으뜸플러스안경 서울목동점","","37.5161147","126.8623142","정보없음"
"4012601","안경백서 목동점","","37.5256417","126.8694142","정보없음"
"4025505","디스커버리 롯데프리미엄아울렛 의왕점","","37.3758169","127.0102773","정보없음"
"4025538","세븐일레븐 동교다온점","","37.5569655","126.9207408","정보없음"
"4025541","와키윌리 홍대 플래그십","","37.5510737","126.9204167","정보없음"
"4025558","루프 홍대점","","37.5535161","126.9217154","정보없음"
"4025561","GS25 서대문창천점","","37.5587151","126.9275695","정보없음"
"4025564","엠플레이그라운드 연세2호점","","37.5558705","126.9367123","정보없음"
"4025565","홀리카홀리카 신촌점","","37.5568423","126.9370433","정보없음"
"4025571","엠플레이그라운드 연세점","","37.5561920","126.9371349","정보없음"
"4025577","CU 스위스그랜드호텔점","","37.5893782","126.9355184","정보없음"
"4025583","카페 베이지크","","37.5687928","126.9302285","정보없음"
"4025593","스파오 강남2호점","","37.4995604","127.0263398","정보없음"
"4025601","강남드림약국","","37.5011776","127.0255610","정보없음"
"4025602","찰스앤키스 강남 플래그십스토어","","37.5019926","127.0252433","정보없음"
"4025605","스마트온누리약국","","37.4942644","127.0282598","정보없음"
"4025606","으뜸50안경 강남1호점","","37.4992617","127.0254843","정보없음"
"4025607","뉴뉴 강남점","","37.5005039","127.0259000","정보없음"
"4025614","토니모리 신분당선양재점","","37.4839347","127.0345442","정보없음"
"4025624","AK골프 서초점","","37.4842298","127.0108415","정보없음"
"4025636","정관장 내방역점","","37.4910579","126.9918836","정보없음"
"4025660","강남엔비의원","","37.4995536","127.0257524","정보없음"
"4025689","오데마 피게 신세계백화점 강남점","","37.5039352","127.0024130","정보없음"
"4025703","곰베","","37.5062203","127.0050517","정보없음"
"4025709","똥싼바지 고투몰점","","37.5062203","127.0050517","정보없음"
"4025710","크리스탈 안경","","37.5062203","127.0050517","정보없음"
"4025729","스왈로우라운지 성수","","37.5455231","127.0569845","정보없음"
"4025736","타이틀리스트 시티투어밴","","37.5432798","127.0563382","정보없음"
"4025737","K2 성수사거리점","","37.5427554","127.0632705","정보없음"
"4025741","파타고니아 서울성수낙낙직영점","","37.5463938","127.0658895","정보없음"
"4025756","세터하우스 성수","","37.5413607","127.0612828","정보없음"
"4025757","더 기어샵 성수","","37.5446547","127.0517794","정보없음"
"4025759","반스 성수점","","37.5442940","127.0530445","정보없음"
"4025776","마리떼프랑소와저버 FSS 성수점","","37.5434490","127.0515041","정보없음"
"4025792","아디다스 오리지널스 플래그십 성수","","37.5430493","127.0530394","정보없음"
"4025801","르 라보 성수점","","37.5423764","127.0558038","정보없음"
"4025802","뜻밖의 즐거움","","37.5439125","127.0502012","정보없음"
"4025804","논픽션 성수","","37.5438486","127.0504216","정보없음"
"4025812","LG전자 베스트샵 미아사거리점","","37.6084269","127.0300312","정보없음"
"4025817","나이키 송파점","","37.5010858","127.1104631","정보없음"
"4025819","다이나핏 롯데백화점 잠실점","","37.5116513","127.1008232","정보없음"
"4025824","구찌뷰티 롯데백화점 잠실점","","37.5113096","127.0981418","정보없음"
"4025830","펠르페르 롯데백화점 잠실점","","37.5113096","127.0981418","정보없음"
"4025832","로렌바이랄프로렌 롯데백화점 잠실점","","37.5113096","127.0981418","정보없음"
"4025837","알이토프","","37.5788366","126.9830842","정보없음"
"4025848","탬버린즈 삼청 플래그십스토어","","37.5793697","126.9822607","정보없음"
"2930418","롯데하이마트 포천점","","37.8845758","127.1906589","정보없음"
"2930436","나이키 롯데백화점 건대스타시티점","","37.5390374","127.0714321","정보없음"
"2930458","전주공예품전시관","","35.8143573","127.1530847","정보없음"
"2930522","뉴발란스 전주점","","35.8189499","127.1436849","정보없음"
"2930610","올리브영 안산점","","37.3179429","126.8356433","정보없음"
"2930620","올리브영 아현역점","","37.5586217","126.9558604","정보없음"
"2930642","올리브영 화성향남점","","37.1317772","126.9219128","정보없음"
"2930657","올리브영 구로호텔점","","37.4831837","126.8988567","정보없음"
"2930666","에고이스트 신세계사이먼프리미엄아울렛 시흥점","","37.3796756","126.7369853","정보없음"
"2930731","아르마디오 롯데프리미엄아울렛 파주점","","37.7196781","126.6931710","정보없음"
"2930735","올리브영 분당서현점","","37.3840685","127.1215520","정보없음"
"2930741","올리브영 김포사우점","","37.6196966","126.7196475","정보없음"
"2930743","킴스애드안경","","35.8682211","128.5955793","정보없음"
"2930752","올리브영 천호중앙점","","37.5381085","127.1263955","정보없음"
"2930799","크록스 신세계사이먼프리미엄아울렛 시흥점","","37.3796756","126.7369853","정보없음"
"2930810","닥스 ACC 현대프리미엄아울렛 김포점","","37.5972369","126.7852336","정보없음"
"2930831","MUJI 아이파크몰 용산점","","37.5297718","126.9647415","정보없음"
"2930902","유니클로 용산 아이파크몰 용산점","","37.5297718","126.9647415","정보없음"
"2930907","올리브영 장안동사거리점","","37.5722518","127.0701547","정보없음"
"2930912","올리브영 군자역점","","37.5568272","127.0789923","정보없음"
"2930915","올리브영 구미확장단지점","","36.1558391","128.4341587","정보없음"
"2930926","노스페이스 롯데아울렛 청주점","","36.6451690","127.4217413","정보없음"
"2930987","지고트 신세계사이먼프리미엄아울렛 부산점","","35.3249413","129.2360728","정보없음"
"2930995","올리브영 오목교역점","","37.5237531","126.8751431","정보없음"
"2930999","올리브영 신길점","","37.5143976","126.9179683","정보없음"
"2931359","이마트 광산점","","35.1600063","126.8085794","정보없음"
"2931425","질스튜어트 신세계사이먼프리미엄아울렛 부산점","","35.3249413","129.2360728","정보없음"
"2931477","MLB키즈 신세계사이먼프리미엄아울렛 시흥점","","37.3796756","126.7369853","정보없음"
"4025857","전북한지","","37.5720973","126.9853924","정보없음"
"4025858","더샘 인사동점","","37.5719689","126.9866948","정보없음"
"4025864","인사동빈티지","","37.5734166","126.9859354","정보없음"
"4025870","명신당필방","","37.5735932","126.9857173","정보없음"
"4025874","미페이스트리","","37.5792225","126.9711904","정보없음"
"4025876","흐꺙","","37.5793764","126.9716300","정보없음"
"4025878","LFM","","37.5802402","126.9718361","정보없음"
"4025879","바버샵 베스티스","","37.5801333","126.9720504","정보없음"
"4025880","미드앤로우","","37.5812919","126.9692500","정보없음"
"4025891","미페이스트리 별관","","37.5793310","126.9707426","정보없음"
"4025893","종로태양약국","","37.5711021","126.9990023","정보없음"
"4025908","종로제일약국","","37.5712829","127.0036369","정보없음"
"4025923","오렌즈 종로점","","37.5704390","126.9871299","정보없음"
"4025930","GS25 종로동묘점","","37.5717395","127.0159838","정보없음"
"4025937","브이티 명동5호점","","37.5630232","126.9821886","정보없음"
"4025938","조성민안경콘택트 명동지하쇼핑센터점","","37.5635642","126.9820902","정보없음"
"4025951","델보 롯데백화점 본점","","37.5647299","126.9817304","정보없음"
"4025952","끌로에 롯데백화점 본점","","37.5647299","126.9817304","정보없음"
"4025957","스톤헨지 롯데백화점 본점","","37.5647299","126.9817304","정보없음"
"4025964","실버베스트","","37.5587752","126.9776951","정보없음"
"4025965","마레","","37.5600793","126.9777210","정보없음"
"4025966","삼성안경","","37.5584815","126.9770543","정보없음"
"4025974","실로암안경콘택트","","37.5584618","126.9769302","정보없음"
"4025975","도깨비신발","","37.5596679","126.9776736","정보없음"
"4025976","명성상사","","37.5596679","126.9776736","정보없음"
"4025977","남정안경","","37.5596679","126.9776736","정보없음"
"4025984","붐아동화","","37.5592372","126.9784679","정보없음"
"4025985","돈키호테안경","","37.5604796","126.9774805","정보없음"
"4025986","안경과사람들","","37.5607252","126.9794294","정보없음"
"4025988","포스트아카이브팩션 서울스토어","","37.5567648","127.0136525","정보없음"
"4025992","올마스크스토리 3번가점","","37.5627520","126.9855572","정보없음"
"4026000","비너스 명동직매장점","","37.5624652","126.9837847","정보없음"
"4026003","컨버스 명동7길점","","37.5643525","126.9839692","정보없음"
"4026010","오아시스약국 명동","","37.5647313","126.9838589","정보없음"
"4026018","하이모레이디 앤 아가씨 명동점","","37.5620005","126.9865638","정보없음"
"4026020","ABC마트 GS 명동중앙점","","37.5631717","126.9844658","정보없음"
"4025807","다이소 상왕십리역점","","37.5642980","127.0286385","정보없음"
"2929098","게스 진 현대프리미엄아울렛 송도점","","37.3816291","126.6579170","정보없음"
"4025806","다이소 비트플렉스 왕십리역점","","37.5614418","127.0383942","정보없음"
"4008825","미쏘 건대스타시티점","","37.5385583","127.0729962","정보없음"
"4009734","댕글링피어싱 커먼그라운드점","","37.5410566","127.0656692","정보없음"
"4008821","서울중고명품 어포드 커먼그라운드점","","37.5410566","127.0656692","정보없음"
"4009379","타임스퀘어","","37.5172333","126.9037160","정보없음"
"3306061","미셸BY탠디 2001아울렛 중계점","","37.6412865","127.0679074","정보없음"
"3305725","ABC마트 ST 2001아울렛 중계점","","37.6412865","127.0679074","정보없음"
"3305384","인디고뱅크키즈 2001아울렛 중계점","","37.6412865","127.0679074","정보없음"
"3306700","게스진 2001아울렛 중계점","","37.6412865","127.0679074","정보없음"
"3306522","에디션엔드지 2001아울렛 중계점","","37.6412865","127.0679074","정보없음"
"4009332","오렌즈 여의도IFC몰점","","37.5251775","126.9248767","정보없음"
"2909410","비너스/와코루 신세계사이먼프리미엄아울렛 여주점","","37.2459467","127.6123854","정보없음"
"2912773","르꼬끄스포르티브 신세계사이먼프리미엄아울렛 여주점","","37.2459467","127.6123854","정보없음"
"2918758","띠어리 복합 신세계사이먼프리미엄아울렛 여주점","","37.2459467","127.6123854","정보없음"
"4009386","만다리나덕 타임스퀘어점","","37.5172333","126.9037160","정보없음"
"4025740","다이소 뚝섬역점","","37.5476939","127.0451244","정보없음"
"2925871","비이커아울렛 신세계사이먼프리미엄아울렛 여주점","","37.2459467","127.6123854","정보없음"
"2915657","생로랑 신세계사이먼프리미엄아울렛 여주점","","37.2459467","127.6123854","정보없음"
"2924662","닥스 신세계사이먼프리미엄아울렛 여주점","","37.2459467","127.6123854","정보없음"
"2903364","헤지스 신세계사이먼프리미엄아울렛 여주점","","37.2459467","127.6123854","정보없음"
"2931726","캘빈클라인진/언더웨어 신세계사이먼프리미엄아울렛 여주점","","37.2459467","127.6123854","정보없음"
"2930133","아르마니 스토어 신세계사이먼프리미엄아울렛 여주점","","37.2459467","127.6123854","정보없음"
"3307003","프로젝트엠 마리오아울렛 3관점","","37.4781876","126.8871542","정보없음"
"3307012","산드로 신세계백화점 타임스퀘어점","","37.5171900","126.9055671","정보없음"
"3307013","올리브영 진해신항점","","35.0883930","128.8149543","정보없음"
"3307027","골든구스 신세계사이먼프리미엄아울렛 제주점","","33.3049727","126.3163520","정보없음"
"3307036","엄브로 제주점","","33.4860127","126.4902167","정보없음"
"3307041","피팅의원","","37.5169130","127.0222855","정보없음"
"3307071","비온성형외과의원","","37.5161918","127.0206559","정보없음"
"3307082","올리브영 파주가람점","","37.7331697","126.7506991","정보없음"
"3307098","라이프워크 신세계사이먼프리미엄 아울렛 제주점","","33.3049727","126.3163520","정보없음"
"3307106","CU 제주항국제여객터미널","","33.5258374","126.5440785","정보없음"
"3307147","스튜디오톰보이 신세계백화점 타임스퀘어점","","37.5171900","126.9055671","정보없음"
"3307169","나이키 신세계백화점 타임스퀘어점","","37.5171900","126.9055671","정보없음"
"3307176","에뜨와 신세계백화점 타임스퀘어점","","37.5171900","126.9055671","정보없음"
"3307223","올리브영 동탄그랑파사쥬점","","37.1661043","127.1051222","정보없음"
"3307251","올리브영 전주삼천점","","35.7983099","127.1151221","정보없음"
"3307329","올리브영 서귀포광장점","","33.2522392","126.5607541","정보없음"
"3307332","PXG어패럴 신세계백화점 타임스퀘어점","","37.5171900","126.9055671","정보없음"
"3307343","올리브영 부천옥길점","","37.4675072","126.8234032","정보없음"
"3307515","미샤 신세계백화점 타임스퀘어점","","37.5171900","126.9055671","정보없음"
"4012884","MUJI 롯데마트 부평역점","","37.4895677","126.7233506","정보없음"
"2923800","비비안웨스트우드 신세계사이먼프리미엄아울렛 여주점","","37.2459467","127.6123854","정보없음"
"4026044","푸른약국","","37.5616634","126.9850660","정보없음"
"4026049","MLB 명동중앙점","","37.5634329","126.9847803","정보없음"
"4026062","명동중앙약국","","37.5610769","126.9821616","정보없음"
"4026063","광우사","","37.5612129","126.9821215","정보없음"
"4026081","버터샵 명동점","","37.5641417","126.9853945","정보없음"
"4026098","시청엔약국","","37.5638908","126.9755486","정보없음"
"4026118","오렌지약국","","37.5656490","126.9881426","정보없음"
"4026128","코닥 던던 동대문점","","37.5657600","127.0070796","정보없음"
"4026129","노르디스크 던던 동대문점","","37.5657600","127.0070796","정보없음"
"4026132","삼성바른약국","","37.5654640","127.0090011","정보없음"
"4026155","네파 인천신포점","","37.4717186","126.6266776","정보없음"
"4026156","스케쳐스 인천신포점","","37.4720703","126.6270571","정보없음"
"4026157","스파이더 동인천점","","37.4720585","126.6271486","정보없음"
"4026158","씨채널안경 동인천점","","37.4722514","126.6286316","정보없음"
"4026161","더모브 인스파이어점","","37.4652582","126.3757358","정보없음"
"4026162","트래블메이트 인천공항제2여객터미널점","","37.4692488","126.4332092","정보없음"
"4026166","노브랜드 나주빛가람점","","35.0227578","126.7917344","정보없음"
"4026167","노스페이스화이트라벨 목포점","","34.8073353","126.4254418","정보없음"
"4026168","롯데하이마트 하당점","","34.7981216","126.4284723","정보없음"
"4026170","메트로시티 롯데아울렛 남악점","","34.8036161","126.4646909","정보없음"
"4026175","CK복합관 롯데아울렛 남악점","","34.8036161","126.4646909","정보없음"
"4026179","캉골 롯데아울렛 남악점","","34.8036161","126.4646909","정보없음"
"4026182","네파키즈 롯데아울렛 남악점","","34.8036161","126.4646909","정보없음"
"4026183","스케쳐스 롯데아울렛 남악점","","34.8036161","126.4646909","정보없음"
"4026184","캉골키즈 롯데아울렛 남악점","","34.8036161","126.4646909","정보없음"
"4026187","롯데하이마트 연향점","","34.9440726","127.5132696","정보없음"
"4026188","빈폴 순천점","","34.9539676","127.4844754","정보없음"
"4026189","오렌즈 순천점","","34.9541315","127.4849941","정보없음"
"4026194","롯데하이마트 화순점","","35.0577918","126.9819801","정보없음"
"4026197","레코브 롯데몰 군산점","","35.9764135","126.7391411","정보없음"
"4026201","아트박스 스타필드 안성점","","36.9946334","127.1472496","정보없음"
"4026202","캉골 스타필드 안성점","","36.9946334","127.1472496","정보없음"
"4026203","스톤헨지 롯데백화점 평촌점","","37.3900022","126.9501786","정보없음"
"4026207","롯데하이마트 옥정점","","37.8036604","127.0797763","정보없음"
"4026208","LG전자 베스트샵 양주점","","37.8237968","127.0498753","정보없음"
"4026209","데상트 LF스퀘어 양주점","","37.8313923","127.0522919","정보없음"
"4026210","롯데하이마트 LF스퀘어 양주점","","37.8313923","127.0522919","정보없음"
"4026213","스노우피크 여주 프리미엄 빌리지점","","37.2442564","127.6151498","정보없음"
"4026217","캉골키즈 신세계사이먼프리미엄아울렛 여주점","","37.2459467","127.6123854","정보없음"
"4026218","톰보이 신세계사이먼프리미엄아울렛 여주점","","37.2459467","127.6123854","정보없음"
"4026220","엄브로 신세계사이먼프리미엄아울렛 여주점","","37.2459467","127.6123854","정보없음"
"4026222","키톤 신세계사이먼프리미엄아울렛 여주점","","37.2459467","127.6123854","정보없음"
"4026224","렉토 신세계사이먼프리미엄아울렛 여주점","","37.2459467","127.6123854","정보없음"
"4026226","메종마르지엘라 신세계사이먼프리미엄아울렛 여주점","","37.2459467","127.6123854","정보없음"
"4026228","솔리드옴므 신세계사이먼프리미엄아울렛 여주점","","37.2459467","127.6123854","정보없음"
"4026233","토즈 신세계사이먼프리미엄아울렛 여주점","","37.2459467","127.6123854","정보없음"
"4026234","써스데이아일랜드 신세계사이먼프리미엄아울렛 여주점","","37.2459467","127.6123854","정보없음"
"4026235","어뉴골프 신세계사이먼프리미엄아울렛 여주점","","37.2459467","127.6123854","정보없음"
"4026238","핑 롯데프리미엄아울렛 기흥점","","37.2255420","127.1212840","정보없음"
"4026240","마리떼키즈 롯데프리미엄아울렛 기흥점","","37.2255420","127.1212840","정보없음"
"4026243","타이틀리스트 롯데프리미엄아울렛 기흥점","","37.2255420","127.1212840","정보없음"
"4026245","골든듀 롯데프리미엄아울렛 기흥점","","37.2255420","127.1212840","정보없음"
"4026246","마리떼프랑소와저버 롯데프리미엄아울렛 기흥점","","37.2255420","127.1212840","정보없음"
"4026247","마인드브릿지 롯데프리미엄아울렛 기흥점","","37.2255420","127.1212840","정보없음"
"4026250","브룩스브라더스 롯데프리미엄아울렛 기흥점","","37.2255420","127.1212840","정보없음"
"4026252","올젠 롯데프리미엄아울렛 기흥점","","37.2255420","127.1212840","정보없음"
"4026253","와키윌리 롯데프리미엄아울렛 기흥점","","37.2255420","127.1212840","정보없음"
"4026254","젝시믹스 롯데프리미엄아울렛 기흥점","","37.2255420","127.1212840","정보없음"
"4026255","코드그라피 롯데프리미엄아울렛 기흥점","","37.2255420","127.1212840","정보없음"
"4026257","삼성스토어 용인구성","","37.3050235","127.1064973","정보없음"
"4026258","정관장 흥덕본점","","37.2765081","127.0715647","정보없음"
"4026264","에잇세컨즈 롯데몰 수지점","","37.3127976","127.0816669","정보없음"
"4026267","스케쳐스 롯데몰 수지점","","37.3127976","127.0816669","정보없음"
"4026269","르꼬끄 롯데프리미엄아울렛 의왕점","","37.3758169","127.0102773","정보없음"
"4026271","브라운브레스 롯데프리미엄아울렛 의왕점","","37.3758169","127.0102773","정보없음"
"4026272","슈퍼플레이 롯데프리미엄아울렛 의왕점","","37.3758169","127.0102773","정보없음"
"4026275","안다르 롯데프리미엄아울렛 의왕점","","37.3758169","127.0102773","정보없음"
"4026279","노스페이스 의정부점","","37.7449025","127.0936806","정보없음"
"4026280","아트박스 의정부민락점","","37.7448484","127.0952721","정보없음"
"4026284","코오롱스포츠 신세계백화점 의정부점","","37.7379563","127.0458722","정보없음"
"4026285","삼성스토어 금오","","37.7546481","127.0767721","정보없음"
"4026286","크록스 이천점","","37.2809065","127.4433106","정보없음"
"4026291","코닥 롯데프리미엄아울렛 이천점","","37.2422269","127.4000261","정보없음"
"4026292","클라터뮤젠 롯데프리미엄아울렛 이천점","","37.2422269","127.4000261","정보없음"
"4026293","타이틀리스트 롯데프리미엄아울렛 이천점","","37.2422269","127.4000261","정보없음"
"4026294","피레티 롯데프리미엄아울렛 이천점","","37.2422269","127.4000261","정보없음"
"4026295","ThursdayIsland 롯데프리미엄아울렛 이천점","","37.2422269","127.4000261","정보없음"
"4026296","미니멈 롯데프리미엄아울렛 이천점","","37.2422269","127.4000261","정보없음"
"4026297","오가닉맘 롯데프리미엄아울렛 이천점","","37.2422269","127.4000261","정보없음"
"4026299","지이크 롯데프리미엄아울렛 이천점","","37.2422269","127.4000261","정보없음"
"4026307","Lee 롯데프리미엄아울렛 파주점","","37.7196781","126.6931710","정보없음"
"4026309","엄브로 롯데프리미엄아울렛 파주점","","37.7196781","126.6931710","정보없음"
"4026312","스케쳐스 롯데프리미엄아울렛 파주점","","37.7196781","126.6931710","정보없음"
"4026314","LG전자 베스트샵 운정본점","","37.7064790","126.7456032","정보없음"
"2894618","폴로랄프로렌 신세계사이먼프리미엄아울렛 여주점","","37.2459467","127.6123854","정보없음"
"2918736","지미추 신세계사이먼프리미엄아울렛 여주점","","37.2459467","127.6123854","정보없음"
"4008196","JDX 여주아울렛점","","37.2421214","127.6175472","정보없음"
"2914213","스파이더 여주프리미엄 빌리지","","37.2426837","127.6158893","정보없음"
"4025701","다이소 강남고속터미널점","","37.5064357","127.0068344","정보없음"
"4009434","한국금거래소 아이파크몰 용산점","","37.5297718","126.9647415","정보없음"
"2930526","뉴발란스팩토리 현대아울렛 가산점","","37.4776190","126.8890553","정보없음"
"126850","순천 검단산성","","34.9126000","127.5501000","정보없음"
"127492","중문관광단지","","33.2487000","126.4125000","정보없음"
"128757","정동진해변","","37.6913603","129.0325745","정보없음"
"577461","다랑쉬오름(월랑봉)","","33.4759678","126.8228165","정보없음"
"603727","호명호수공원","","37.7495000","127.4755000","정보없음"
"702361","함안 어계고택","","35.2337930","128.3207578","정보없음"
"729167","반포대교 달빛무지개분수","","37.5126000","126.9985000","정보없음"
"970052","세빛섬","","37.5125000","126.9960000","정보없음"
"2047242","정읍 쌍화차거리","","35.5667059","126.8577053","정보없음"
"2628994","강릉 명주동 거리","","37.7510829","128.8926968","정보없음"
"2712734","요천생태습지공원","","35.3827000","127.3417000","정보없음"
"2713784","광진해수욕장","","37.9653607","128.7643377","정보없음"
"2731193","강릉항","","37.7713509","128.9517207","정보없음"
"2789378","제주신흥해수욕장","","33.5519478","126.6485310","정보없음"
"2893660","에메필 강남가로수점","","37.5170147","127.0208505","정보없음"
"2893686","참좋은온누리약국","","37.5087437","127.0583424","정보없음"
"2893689","그랑프리안경원 대림점","","37.4929626","126.8965505","정보없음"
"2893864","더바디샵 현대프리미엄아울렛송도점","","37.3816291","126.6579170","정보없음"
"2894067","소다 롯데프리미엄아울렛 김해점","","35.1850621","128.8295964","정보없음"
"2894073","클로체쥬얼리","","37.5321682","126.9608842","정보없음"
"2894108","나이스클랍 롯데프리미엄아울렛 동부산점","","35.1923230","129.2124953","정보없음"
"2894216","겐조키즈 롯데프리미엄아울렛 동부산점","","35.1923230","129.2124953","정보없음"
"2894226","린 롯데아울렛 서울역","","37.5548376","126.9717326","정보없음"
"2894554","소다 롯데프리미엄아울렛 기흥점","","37.2255420","127.1212840","정보없음"
"2894575","TINTIN SHOP","","37.5538732","126.9251646","정보없음"
"2894585","듀퐁셔츠 롯데프리미엄아울렛 기흥점","","37.2255420","127.1212840","정보없음"
"2894587","린 롯데프리미엄아울렛 기흥점","","37.2255420","127.1212840","정보없음"
"2894622","폴로랄프로렌 롯데프리미엄아울렛 동부산점","","35.1923230","129.2124953","정보없음"
"2894624","소다 현대아울렛 가산점","","37.4776190","126.8890553","정보없음"
"2894933","ZIP739 한남점","","37.5374186","127.0005787","정보없음"
"2899189","ABC마트 MS 강릉금학점","","37.7538076","128.8958277","정보없음"
"2900265","룰루레몬 롯데백화점 에비뉴엘 잠실점","","37.5137130","127.1043018","정보없음"
"2900502","리바이스 현대프리미엄아울렛 김포점","","37.5972369","126.7852336","정보없음"
"2900741","쉬즈미스 현대아울렛 가산점","","37.4776190","126.8890553","정보없음"
"2900776","노스페이스 현대아울렛 가산점","","37.4776190","126.8890553","정보없음"
"2900854","홍대365약국","","37.5547020","126.9261319","정보없음"
"2900879","슈콤마보니 롯데프리미엄아울렛 기흥점","","37.2255420","127.1212840","정보없음"
"2900889","슈콤마보니 현대프리미엄아울렛 김포점","","37.5972369","126.7852336","정보없음"
"2900922","카카오프렌즈 홍대플래그십 스토어","","37.5564136","126.9238812","정보없음"
"2900985","골프존마켓 현대프리미엄아울렛 김포점","","37.5972369","126.7852336","정보없음"
"2901008","지프키즈 현대아울렛 가든파이브점","","37.4776148","127.1249618","정보없음"
"2901213","르 라보 가로수길점","","37.5217612","127.0219274","정보없음"
"2901422","젠틀몬스터 홍대 플래그십스토어","","37.5500571","126.9201230","정보없음"
"2901435","디스커버리 현대아울렛 가산점","","37.4776190","126.8890553","정보없음"
"4010506","에트로 스타필드 하남점","","37.5454041","127.2239403","정보없음"
"4010520","제이에스티나 스타필드 고양점","","37.6469771","126.8947781","정보없음"
"4010522","MUJI 스타필드 고양점","","37.6469771","126.8947781","정보없음"
"4010527","럭키슈에뜨 스타필드 하남점","","37.5454041","127.2239403","정보없음"
"4010529","금강제화 스타필드 하남점","","37.5454041","127.2239403","정보없음"
"4010530","아디다스 롯데아울렛 고양점","","37.6295890","126.8631238","정보없음"
"4010532","코오롱스포츠 스타필드 하남점","","37.5454041","127.2239403","정보없음"
"4010550","MLB 스타필드 하남점","","37.5454041","127.2239403","정보없음"
"4010553","소다 롯데아울렛 고양터미널점","","37.6431349","126.7897974","정보없음"
"4010555","골든구스 스타필드 하남점","","37.5454041","127.2239403","정보없음"
"2901445","띠어리 복합 한남점","","37.5372990","127.0004632","정보없음"
"2901487","모다아울렛 인천점","","37.5099191","126.6477250","정보없음"
"4026404","롯데하이마트 진주성점","","35.1920818","128.0821778","정보없음"
"4026407","LG전자 베스트샵 내서점","","35.2494255","128.5175911","정보없음"
"4026408","삼성스토어 창원","","35.2253328","128.6788803","정보없음"
"4026409","롯데하이마트 도계점","","35.2539451","128.6375603","정보없음"
"4026410","LG전자 베스트샵 경화점","","35.1529336","128.6938445","정보없음"
"4026411","홈플러스 경산점","","35.8328253","128.7356446","정보없음"
"4026414","롯데하이마트 메가스토어 경산점","","35.8336072","128.7309094","정보없음"
"4026417","라이프워크 경주직영점","","35.8438853","129.2133221","정보없음"
"4026418","롯데하이마트 경주점","","35.8606562","129.2200368","정보없음"
"4026419","LG전자 베스트샵 경주점","","35.8669172","129.2230847","정보없음"
"4026420","ABC마트 ST 경주노동점","","35.8421441","129.2127467","정보없음"
"4026421","한양민예사","","35.7864459","129.3255503","정보없음"
"4026422","ABC마트 ST 경주천북점","","35.9154378","129.2436827","정보없음"
"4026423","LG전자 베스트샵 구미본점","","36.1046652","128.3633855","정보없음"
"4026424","에메필 구미점","","36.1289738","128.3340843","정보없음"
"4026425","LG전자 베스트샵 인동점","","36.1032036","128.4215320","정보없음"
"4026427","롯데하이마트 상주점","","36.4226382","128.1504259","정보없음"
"4026428","아일로 안동점","","36.5647755","128.7291842","정보없음"
"4026430","롯데하이마트 영주점","","36.8230298","128.6084679","정보없음"
"4026431","라이프워크 메가스토어 영천점","","35.9708156","128.9391792","정보없음"
"4026432","롯데하이마트 영천점","","35.9656310","128.9392786","정보없음"
"4026435","롯데하이마트 대잠점","","36.0135504","129.3446247","정보없음"
"4026436","롯데하이마트 오천점","","35.9757318","129.4042475","정보없음"
"4026437","LG전자 베스트샵 포항본점","","36.0135458","129.3696872","정보없음"
"4026440","롯데하이마트 우현점","","36.0530020","129.3613716","정보없음"
"4026441","LG전자 베스트샵 북포항본점","","36.0594243","129.3545592","정보없음"
"4026443","엄브로 포항중앙점","","36.0363838","129.3624850","정보없음"
"4026444","크록스 포항점","","36.0371146","129.3631928","정보없음"
"4026445","엠픽 포항점","","36.0371579","129.3632775","정보없음"
"4026446","에메필 포항점","","36.0375011","129.3635330","정보없음"
"4026453","삼성스토어 광산","","35.1734570","126.8087156","정보없음"
"4026455","아트박스 광주수완점","","35.1910765","126.8243812","정보없음"
"4026468","LG전자 베스트샵 진월점","","35.1233591","126.8987271","정보없음"
"4026469","노스페이스 주월점","","35.1336298","126.8959845","정보없음"
"4026471","365문화전당약국","","35.1466028","126.9185191","정보없음"
"4026472","원더플레이스 광주중앙로점","","35.1474923","126.9137490","정보없음"
"4026473","엠플레이그라운드 광주2호점","","35.1476930","126.9146218","정보없음"
"4026474","엠플레이그라운드 광주3호점","","35.1477020","126.9154205","정보없음"
"4026475","로이드 충장로점","","35.1482963","126.9159338","정보없음"
"4011455","코오롱스포츠 스타필드 수원점","","37.2874453","126.9915746","정보없음"
"4011456","슈스파 스타필드 수원점","","37.2874453","126.9915746","정보없음"
"4011460","에잇세컨즈 스타필드 수원점","","37.2874453","126.9915746","정보없음"
"4011465","닥터마틴 스타필드 수원점","","37.2874453","126.9915746","정보없음"
"4011471","컨버스 스타필드 수원점","","37.2874453","126.9915746","정보없음"
"4011474","로이드 스타필드 수원점","","37.2874453","126.9915746","정보없음"
"4011477","노스페이스 스타필드 수원점","","37.2874453","126.9915746","정보없음"
"4011483","MUJI 스타필드 수원점","","37.2874453","126.9915746","정보없음"
"4011485","아디다스 스타필드 수원점","","37.2874453","126.9915746","정보없음"
"4011490","갤럭시 AK플라자 수원점","","37.2655921","127.0001799","정보없음"
"4011491","태그호이어 AK플라자 수원점","","37.2655921","127.0001799","정보없음"
"4011496","로에베 현대백화점 압구정본점","","37.5273661","127.0274685","정보없음"
"4011497","다미아니 현대백화점 압구정본점","","37.5273661","127.0274685","정보없음"
"4011500","톰포드 현대백화점 압구정본점","","37.5273661","127.0274685","정보없음"
"4011501","델보 현대백화점 압구정본점","","37.5273661","127.0274685","정보없음"
"4011504","디젤 갤러리아백화점 명품관 WEST점","","37.5284754","127.0400527","정보없음"
"4011506","돌체앤가바나뷰티 갤러리아백화점 명품관 WEST점","","37.5284754","127.0400527","정보없음"
"4011509","호간 갤러리아백화점 명품관 WEST점","","37.5284754","127.0400527","정보없음"
"4011511","프랫안경 신세계사이먼프리미엄아울렛 시흥점","","37.3796756","126.7369853","정보없음"
"4011512","템퍼 신세계사이먼프리미엄아울렛 시흥점","","37.3796756","126.7369853","정보없음"
"4011520","닥스종합관 신세계사이먼프리미엄아울렛 시흥점","","37.3796756","126.7369853","정보없음"
"4011521","벨루티 갤러리아백화점 명품관 WEST점","","37.5284754","127.0400527","정보없음"
"4011522","코오롱스포츠 신세계사이먼프리미엄아울렛 시흥점","","37.3796756","126.7369853","정보없음"
"4011523","펜디남성 갤러리아백화점 명품관 WEST점","","37.5284754","127.0400527","정보없음"
"4011524","스와로브스키 신세계사이먼프리미엄아울렛 시흥점","","37.3796756","126.7369853","정보없음"
"4011525","골든듀 신세계사이먼프리미엄아울렛 시흥점","","37.3796756","126.7369853","정보없음"
"4011530","아디다스 신세계사이먼프리미엄아울렛 시흥점","","37.3796756","126.7369853","정보없음"
"4011533","탠디 신세계사이먼프리미엄아울렛 시흥점","","37.3796756","126.7369853","정보없음"
"4011535","라코스테 신세계사이먼프리미엄아울렛 시흥점","","37.3796756","126.7369853","정보없음"
"4011536","게스 신세계사이먼프리미엄아울렛 시흥점","","37.3796756","126.7369853","정보없음"
"4011590","탑텐키즈 스타필드 코엑스몰점","","37.5118239","127.0591590","정보없음"
"4011597","노스페이스 스타필드 코엑스몰점","","37.5118239","127.0591590","정보없음"
"4011598","쌤소나이트 스타필드 코엑스몰점","","37.5118239","127.0591590","정보없음"
"4026478","코닥아웃도어 롯데아울렛 광주월드컵점","","35.1336461","126.8748299","정보없음"
"4026480","LG전자 베스트샵 서광주본점","","35.1502293","126.8590598","정보없음"
"4026481","롯데하이마트 롯데마트맥스 상무점","","35.1523684","126.8524222","정보없음"
"4026482","정관장 상무점","","35.1576682","126.8476586","정보없음"
"4026483","아트박스 광주상무점","","35.1541237","126.8477689","정보없음"
"4026484","롯데하이마트 죽전점","","35.8508840","128.5382127","정보없음"
"4026485","라이프워크 대구달서직영점","","35.8391396","128.4906762","정보없음"
"4026488","아트박스 대구성서점","","35.8549657","128.5099875","정보없음"
"4026490","아트박스 대구테크노폴리스점","","35.6930633","128.4629008","정보없음"
"4026492","타미힐피거 현대아울렛 대구점","","35.8707298","128.6265466","정보없음"
"4026493","꼼빠니아 현대아울렛 대구점","","35.8707298","128.6265466","정보없음"
"4026509","코오롱스포츠 신세계백화점 대구점","","35.8779407","128.6291900","정보없음"
"4026522","데상트 롯데아울렛 이시아폴리스점","","35.9215483","128.6373571","정보없음"
"4026529","코오롱스포츠 롯데아울렛 이시아폴리스점","","35.9215483","128.6373571","정보없음"
"4026536","코오롱스포츠 롯데백화점 대구점","","35.8758849","128.5961292","정보없음"
"4026543","아크테릭스 플래그십스토어 대구 수성","","35.8584498","128.6426473","정보없음"
"4026544","다이네즈 디스토어 대구","","35.8429165","128.6896209","정보없음"
"4026549","고쟁이 대현프리몰 대구점","","35.8708525","128.5951980","정보없음"
"4026550","미도 현대백화점 더현대 대구점","","35.8666296","128.5906257","정보없음"
"4026551","부쉐론 현대백화점 더현대 대구점","","35.8666296","128.5906257","정보없음"
"4026556","코오롱스포츠 현대백화점 더현대 대구점","","35.8666296","128.5906257","정보없음"
"4026557","아트박스 반월당역사점","","35.8644213","128.5933408","정보없음"
"4026564","벨로우","","35.8670052","128.5965494","정보없음"
"4026570","코닥어패럴 직영","","35.8687831","128.5953519","정보없음"
"4026574","LG전자 베스트샵 대연점","","35.1350917","129.0862957","정보없음"
"4026578","고려인삼","","35.1632343","129.0609058","정보없음"
"4026581","롯데하이마트 사상점","","35.1634860","128.9797531","정보없음"
"4026586","롯데하이마트 연산점","","35.1875404","129.1074318","정보없음"
"4026591","엠픽 부산광복점","","35.0988675","129.0320289","정보없음"
"4026592","유핑","","35.1015402","129.0306899","정보없음"
"4026595","반에이크 롯데백화점 광복점","","35.0979849","129.0366323","정보없음"
"4026598","아디다스 신세계 센텀시티몰점","","35.1698614","129.1282901","정보없음"
"4026612","디자인스킨 강남지하점","","37.4903504","127.0315075","정보없음"
"4026613","노브랜드 강남역삼점","","37.4921449","127.0309530","정보없음"
"4026614","옵티마 강남정약국","","37.4935022","127.0305768","정보없음"
"4026616","네이처컬렉션 강남역사점","","37.4965740","127.0287989","정보없음"
"4026618","스파오 강남점","","37.5012350","127.0266306","정보없음"
"4026620","오렌즈N카린 CGV 강남점","","37.5016428","127.0263361","정보없음"
"4026621","제일그랜드약국 공공심야약국","","37.5051063","127.0246695","정보없음"
"2901650","홈플러스 메세나폴리스점","","37.5515008","126.9139502","정보없음"
"2901662","아디다스오리지널스 롯데백화점 건대스타시티점","","37.5390374","127.0714321","정보없음"
"2901669","다비치안경 신사역점","","37.5168664","127.0205009","정보없음"
"2901686","롯데하이마트 신방점","","36.7857399","127.1281607","정보없음"
"2901909","데상트 롯데프리미엄아울렛 동부산점","","35.1923230","129.2124953","정보없음"
"2901963","마이클코어스 롯데프리미엄아울렛 기흥점","","37.2255420","127.1212840","정보없음"
"2902001","기비키이스 현대아울렛 가산점","","37.4776190","126.8890553","정보없음"
"2902004","리바이스 롯데프리미엄아울렛 기흥점","","37.2255420","127.1212840","정보없음"
"2902043","갤럭시아울렛 롯데프리미엄아울렛 기흥점","","37.2255420","127.1212840","정보없음"
"2902057","로가디스 롯데프리미엄아울렛 기흥점","","37.2255420","127.1212840","정보없음"
"2902104","타임옴므 롯데프리미엄아울렛 기흥점","","37.2255420","127.1212840","정보없음"
"2902113","시스템 롯데프리미엄아울렛 기흥점","","37.2255420","127.1212840","정보없음"
"2902135","SJSJ 롯데프리미엄아울렛 기흥점","","37.2255420","127.1212840","정보없음"
"2902337","마크앤로나 롯데프리미엄아울렛 기흥점","","37.2255420","127.1212840","정보없음"
"4012604","한국금거래소 골드쉘 영등포점","","37.5159688","126.9061366","정보없음"
"4012611","올리비아로렌 신길점","","37.5066726","126.9108076","정보없음"
"4012633","GS25 남산서울타워점","","37.5511821","126.9876498","정보없음"
"4012636","벳우먼 한남 스토어","","37.5337140","127.0027835","정보없음"
"4012638","드파운드 한남 쇼룸","","37.5349444","127.0008616","정보없음"
"4012639","아틀리에 나인 한남 플래그십 스토어","","37.5352702","127.0005753","정보없음"
"4012643","소명약국","","37.5341175","126.9954398","정보없음"
"4012653","OPEN YY Flagship Store HANNAM","","37.5344953","126.9993313","정보없음"
"4012656","닥터마틴 한남","","37.5369916","127.0014837","정보없음"
"4012658","오디크","","37.5357684","127.0009729","정보없음"
"4012661","UNLESS","","37.5354588","127.0007421","정보없음"
"4012664","세븐일레븐 캐피탈점","","37.5286815","126.9921697","정보없음"
"4012671","카린 한남","","37.5375372","127.0035718","정보없음"
"4012672","케미컬스포츠","","37.5381575","127.0027506","정보없음"
"4012673","시엔느 한남부티크","","37.5400517","127.0032870","정보없음"
"4011874","나이키 롯데프리미엄아울렛 의왕점","","37.3758169","127.0102773","정보없음"
"4011880","금강제화 신세계백화점 의정부점","","37.7379563","127.0458722","정보없음"
"4012885","유니클로 부평역사점","","37.4895677","126.7233506","정보없음"
"4012675","그로브스토어 한남점","","37.5396112","127.0030160","정보없음"
"4012676","NOTHING WRITTEN & Cafe Corner","","37.5425910","127.0037532","정보없음"
"4012677","렉토","","37.5422152","127.0032758","정보없음"
"4012678","웨이비니스","","37.5438216","127.0029525","정보없음"
"4012681","안경공장쇼룸 본점","","37.5843704","126.9098151","정보없음"
"4012693","플레인브랜드","","37.5834182","127.0000959","정보없음"
"4012696","예작 쥬얼리","","37.5713633","126.9921504","정보없음"
"4026623","센느약국","","37.5082690","127.0231381","정보없음"
"4026626","신사스퀘어약국","","37.5195659","127.0190910","정보없음"
"4026630","아로마티카 신사","","37.5212735","127.0217178","정보없음"
"4026633","으뜸50안경 압구정역점","","37.5239685","127.0277588","정보없음"
"4026634","생생온누리약국","","37.5240380","127.0287309","정보없음"
"4026637","압구정프라자약국","","37.5253453","127.0280999","정보없음"
"4026641","세컨스트릿 본점","","37.5199508","127.0233576","정보없음"
"4026642","미쉔주 본점","","37.5219428","127.0277066","정보없음"
"4026644","메디팜압구정약국","","37.5227614","127.0291057","정보없음"
"4026653","아이디약국","","37.5169616","127.0206898","정보없음"
"4026657","피레티 도산FLAGSHOP","","37.5224100","127.0353495","정보없음"
"4026660","칼하트WIP 신사점","","37.5200787","127.0224674","정보없음"
"4026661","에스코티지","","37.5167375","127.0288058","정보없음"
"4026664","batutara716","","37.5239125","127.0373685","정보없음"
"4026666","레스포색 압구정 플래그십 스토어","","37.5233511","127.0374252","정보없음"
"4026667","이마트24 청담본점","","37.5250914","127.0417070","정보없음"
"4026671","브라운햇","","37.5229612","127.0493117","정보없음"
"4026675","로데오안경원 삼성점","","37.5127263","127.0512395","정보없음"
"4026676","사봉 스타필드 코엑스몰점","","37.5140745","127.0550962","정보없음"
"4026682","라온안경원 삼성점","","37.5087832","127.0570789","정보없음"
"4026685","청담더약국","","37.5264379","127.0404453","정보없음"
"4026686","라운지엘","","37.5275313","127.0403637","정보없음"
"4026688","크레아티오","","37.5181593","127.0415659","정보없음"
"4026689","비앤디 청담 쇼룸","","37.5219144","127.0422163","정보없음"
"4026691","비비씨어스 도산점","","37.5256207","127.0374900","정보없음"
"4026692","아크테릭스 플래그십스토어 강남","","37.5262303","127.0383942","정보없음"
"4026703","부첼라티 갤러리아백화점 명품관 EAST점","","37.5279182","127.0418317","정보없음"
"4026705","질샌더 갤러리아백화점 명품관 EAST점","","37.5279182","127.0418317","정보없음"
"4026708","위블로 갤러리아백화점 명품관 EAST점","","37.5279182","127.0418317","정보없음"
"4026712","리차드 밀 압구정","","37.5259006","127.0459504","정보없음"
"4026713","리모와 청담 플래그십","","37.5252548","127.0472324","정보없음"
"4026715","모노로우","","37.5208016","127.0220386","정보없음"
"4026717","압구정화이트약국","","37.5258914","127.0294942","정보없음"
"4026721","아틀리에나인 도산 플래그십 스토어","","37.5259414","127.0370767","정보없음"
"4026722","하파크리스틴 압구정로데오점","","37.5267488","127.0379886","정보없음"
"4026726","분크 청담직영점","","37.5244604","127.0442192","정보없음"
"4026727","이자벨마랑 서울점","","37.5250654","127.0462079","정보없음"
"4026728","앱섹 캐시미어","","37.5227716","127.0213095","정보없음"
"4026729","제너럴아이디어 신사점","","37.5223980","127.0220418","정보없음"
"4026735","코오롱인더스트리FNC부문 지포어 서울점","","37.5232151","127.0345506","정보없음"
"4026736","스페이스로직","","37.5251679","127.0345992","정보없음"
"4026737","드레익스 도산","","37.5254063","127.0361199","정보없음"
"4026740","디젤 도산점","","37.5262421","127.0355049","정보없음"
"4026741","위글위글집 도산","","37.5261144","127.0363029","정보없음"
"4026742","요즘우리술","","37.4946068","127.0346941","정보없음"
"4026749","모두약국","","37.5007163","127.0366182","정보없음"
"4026758","시스티나 파르나스몰점","","37.5091917","127.0608069","정보없음"
"4026761","삼성온누리약국 coex","","37.5120152","127.0575397","정보없음"
"4026763","으뜸50안경 강남구청역점","","37.5167560","127.0408413","정보없음"
"4026765","NSR 천호점","","37.5458034","127.1223002","정보없음"
"4026767","아트박스 수유점","","37.6373241","127.0243485","정보없음"
"4026769","세컨아이즈 수유역점","","37.6386748","127.0270330","정보없음"
"4026770","쉬즈미스 수유직영점","","37.6391359","127.0274750","정보없음"
"4026771","JAJU 미아사거리역점","","37.6131436","127.0294532","정보없음"
"4026772","젬크레인 롯데백화점 미아점","","37.6145930","127.0305177","정보없음"
"4026773","코오롱스포츠 롯데백화점 미아점","","37.6145930","127.0305177","정보없음"
"4026774","아띠안경원","","37.6484794","127.0144300","정보없음"
"4026778","오설록 김포공항점","","37.5589588","126.8030856","정보없음"
"4026786","쉬즈미스 낙성대점","","37.4777034","126.9612056","정보없음"
"4026789","전북쇼핑트래블라운지","","35.8173339","127.1420408","정보없음"
"4026790","정관장 전동점","","35.8155457","127.1481837","정보없음"
"4026792","나이키 전주효자점","","35.8176682","127.1054729","정보없음"
"4026795","베베드피노 서귀포점","","33.2488204","126.5672914","정보없음"
"4026797","아이에비뉴 신세계사이먼프리미엄아울렛 제주점","","33.3049727","126.3163520","정보없음"
"4026800","산드로 신세계사이먼프리미엄아울렛 제주점","","33.3049727","126.3163520","정보없음"
"4026801","아크테릭스 신세계사이먼프리미엄아울렛 제주점","","33.3049727","126.3163520","정보없음"
"4026806","커버낫 신세계사이먼프리미엄아울렛 제주점","","33.3049727","126.3163520","정보없음"
"4026807","키르시 신세계사이먼프리미엄아울렛 제주점","","33.3049727","126.3163520","정보없음"
"4026818","올레올레 서귀포올레시장점","","33.2499022","126.5632430","정보없음"
"4026819","아트박스 서귀포점","","33.2481015","126.5631077","정보없음"
"4026824","레코브 씨티어브드림즈 제주점","","33.5146534","126.5251708","정보없음"
"4026826","루이까스텔 칠성점","","33.5158895","126.5254732","정보없음"
"4026827","수박빈티지","","33.5166540","126.5232287","정보없음"
"4026832","헬로제주 구좌점","","33.5555728","126.7957699","정보없음"
"4026835","피렌체 제주점","","33.4856033","126.4889053","정보없음"
"4026837","ABC마트 GS 제주본점","","33.4860783","126.4904764","정보없음"
"4026841","와인창고 동문시장점","","33.5126223","126.5286957","정보없음"
"4026842","마이제주기프트","","33.4901228","126.4905743","정보없음"
"4026843","아식스 신제주점","","33.4896693","126.4911660","정보없음"
"4026849","비너스 와코루 마더피아 신제주특별자치도점","","33.4882962","126.4902514","정보없음"
"4026855","타이틀리스트 제주점","","33.4815611","126.4887589","정보없음"
"4026861","핸썸제주","","33.5422686","126.6713203","정보없음"
"4026863","ABC마트 SP 제주시청점","","33.4994651","126.5296442","정보없음"
"4026880","르꼬끄골프 롯데아울렛 부여점","","36.3071478","126.9022704","정보없음"
"4026881","비비안 롯데아울렛 부여점","","36.3071478","126.9022704","정보없음"
"4026884","핑 롯데아울렛 부여점","","36.3071478","126.9022704","정보없음"
"4026885","네파키즈 롯데아울렛 부여점","","36.3071478","126.9022704","정보없음"
"4026887","LG전자 베스트샵 서산예천점","","36.7695239","126.4520152","정보없음"
"4026890","LG전자 베스트샵 아산본점","","36.7774057","127.0209680","정보없음"
"4026893","ABC마트 ST 천안신부점","","36.8185475","127.1549872","정보없음"
"4026899","코오롱스포츠 갤러리아백화점 센터시티점","","36.8005640","127.1047263","정보없음"
"4026901","아트박스 천안불당점","","36.8129631","127.1081762","정보없음"
"4026907","삼성스토어 제천","","37.1464193","128.2241358","정보없음"
"4026910","롯데하이마트 제천점","","37.1506154","128.2143471","정보없음"
"4026911","롯데하이마트 진천점","","36.8613108","127.4385086","정보없음"
"4026912","지오다노 청주점","","36.6353989","127.4888613","정보없음"
"4026917","톰보이 롯데아울렛 청주점","","36.6451690","127.4217413","정보없음"
"4026919","닥스 롯데아울렛 청주점","","36.6451690","127.4217413","정보없음"
"4026921","지오송지오 롯데아울렛 청주점","","36.6451690","127.4217413","정보없음"
"2902991","ABC마트 ST 현대아울렛 가든파이브점","","37.4776148","127.1249618","정보없음"
"2903004","나이키팩토리 롯데프리미엄아울렛 기흥점","","37.2255420","127.1212840","정보없음"
"2903036","르꼬끄스포르티브 롯데프리미엄아울렛 기흥점","","37.2255420","127.1212840","정보없음"
"2903050","금강제화 롯데프리미엄아울렛 기흥점","","37.2255420","127.1212840","정보없음"
"2903070","파라부트","","37.5354455","126.9992250","정보없음"
"2903121","디스커버리 롯데프리미엄아울렛 기흥점","","37.2255420","127.1212840","정보없음"
"2903124","라인 현대프리미엄아울렛 김포점","","37.5972369","126.7852336","정보없음"
"2903145","닥스 롯데프리미엄아울렛 기흥점","","37.2255420","127.1212840","정보없음"
"2903230","나이키메가샵 롯데백화점 노원점","","37.6552787","127.0613917","정보없음"
"2903240","모다아울렛 부평점","","37.4935400","126.7195744","정보없음"
"2903434","아이더 롯데프리미엄아울렛 동부산점","","35.1923230","129.2124953","정보없음"
"2903693","갤럭시 롯데프리미엄아울렛 동부산점","","35.1923230","129.2124953","정보없음"
"2903787","폴로랄프로렌 타임스퀘어점","","37.5172333","126.9037160","정보없음"
"2903813","폴로랄프로렌 가로수길직영점","","37.5200058","127.0228734","정보없음"
"2904056","플랫폼슈즈 신세계백화점 타임스퀘어점","","37.5171900","126.9055671","정보없음"
"2904140","휠라 롯데프리미엄아울렛 기흥점","","37.2255420","127.1212840","정보없음"
"2904182","노스페이스 롯데프리미엄아울렛 기흥점","","37.2255420","127.1212840","정보없음"
"2904210","질스튜어트 현대프리미엄아울렛 김포점","","37.5972369","126.7852336","정보없음"
"2904218","내셔널지오그래픽 현대프리미엄아울렛 김포점","","37.5972369","126.7852336","정보없음"
"2904265","레노마레이디 현대아울렛 가산점","","37.4776190","126.8890553","정보없음"
"2904591","에스핏 목포점","","34.7925213","126.3835420","정보없음"
"4012262","젠틀몬스터 현대백화점 더현대 대구","","35.8666296","128.5906257","정보없음"
"4012263","에스티듀퐁 현대백화점 더현대 대구","","35.8666296","128.5906257","정보없음"
"4012265","골든듀 현대백화점 더현대 대구","","35.8666296","128.5906257","정보없음"
"4012266","태그호이어 현대백화점 더현대 대구","","35.8666296","128.5906257","정보없음"
"4012267","론진 현대백화점 더현대 대구","","35.8666296","128.5906257","정보없음"
"4012282","COS 갤러리아백화점 타임월드점","","36.3519543","127.3781670","정보없음"
"4012284","발렌티노 갤러리아백화점 타임월드점","","36.3519543","127.3781670","정보없음"
"4012285","보테가베네타 갤러리아백화점 타임월드점","","36.3519543","127.3781670","정보없음"
"4012304","발렌티노 대전신세계 Art&Science점","","36.3751818","127.3817654","정보없음"
"4012306","프라다 대전신세계 Art&Science점","","36.3751818","127.3817654","정보없음"
"4012307","오메가 대전신세계 Art&Science점","","36.3751818","127.3817654","정보없음"
"4012308","펜디 대전신세계 Art&Science점","","36.3751818","127.3817654","정보없음"
"4012312","보테가베네타(남성) 대전신세계 Art&Science점","","36.3751818","127.3817654","정보없음"
"4012313","델보 대전신세계 Art&Science점","","36.3751818","127.3817654","정보없음"
"4012317","아이더 현대프리미엄아울렛 대전점","","36.4234369","127.3985168","정보없음"
"4012318","리틀그라운드 현대프리미엄아울렛 대전점","","36.4234369","127.3985168","정보없음"
"4012321","더일마 현대프리미엄아울렛 대전점","","36.4234369","127.3985168","정보없음"
"4012322","테팔 현대프리미엄아울렛 대전점","","36.4234369","127.3985168","정보없음"
"4012323","파타고니아 현대프리미엄아울렛 대전점","","36.4234369","127.3985168","정보없음"
"4012327","다이나핏 현대프리미엄아울렛 대전점","","36.4234369","127.3985168","정보없음"
"4012328","마쥬 현대프리미엄아울렛 대전점","","36.4234369","127.3985168","정보없음"
"4012330","라이프워크 현대프리미엄아울렛 대전점","","36.4234369","127.3985168","정보없음"
"4012332","휴고보스 현대프리미엄아울렛 대전점","","36.4234369","127.3985168","정보없음"
"4012333","산드로 현대프리미엄아울렛 대전점","","36.4234369","127.3985168","정보없음"
"4012334","골든구스 현대프리미엄아울렛 대전점","","36.4234369","127.3985168","정보없음"
"4012335","듀퐁셔츠현대프리미엄아울렛 대전점","","36.4234369","127.3985168","정보없음"
"4012348","오프라벨 롯데프리미엄아울렛 동부산점","","35.1923230","129.2124953","정보없음"
"4012349","드로우핏 롯데프리미엄아울렛 동부산점","","35.1923230","129.2124953","정보없음"
"4012351","커버낫 롯데프리미엄아울렛 동부산점","","35.1923230","129.2124953","정보없음"
"2905014","토이저러스 양평점","","37.5260659","126.8915720","정보없음"
"2905101","토이저러스 롯데마트 중계점","","37.6467905","127.0709409","정보없음"
"4026998","원더플레이스 대전엔비점","","36.3280712","127.4271225","정보없음"
"4026999","엠픽 대전점","","36.3283957","127.4279440","정보없음"
"4027000","정관장 태평로점","","36.3196254","127.3927183","정보없음"
"4027006","CP컴퍼니 롯데프리미엄아울렛 동부산점","","35.1923230","129.2124953","정보없음"
"4027009","리틀그라운드 롯데프리미엄아울렛 동부산점","","35.1923230","129.2124953","정보없음"
"4027020","말본골프 롯데프리미엄아울렛 동부산점","","35.1923230","129.2124953","정보없음"
"4027031","클라터뮤젠 롯데프리미엄아울렛 동부산점","","35.1923230","129.2124953","정보없음"
"4027034","전자랜드 랜드500 기장점","","35.2455980","129.2139362","정보없음"
"4027046","PHYPS 신세계사이먼프리미엄아울렛 부산점","","35.3249413","129.2360728","정보없음"
"4027050","코오롱스포츠 커넥트현대 부산점","","35.1412817","129.0586148","정보없음"
"4027054","이마트24 초량상해점","","35.1137617","129.0380896","정보없음"
"4027055","코오롱스포츠 롯데백화점 동래점","","35.2117080","129.0774797","정보없음"
"4027069","LG전자 베스트샵 부산본점","","35.1631927","129.0542172","정보없음"
"4027073","르 라보 부산지점","","35.1553195","129.0663438","정보없음"
"4027082","골프존마켓 광장점","","37.5442964","127.0911942","정보없음"
"4027083","지오다노 강변엔터식스점","","37.5357252","127.0956922","정보없음"
"4027088","건대역약국","","37.5407827","127.0673968","정보없음"
"4027089","온누리메디칼약국","","37.5406341","127.0676571","정보없음"
"4027091","유니클로 아이파크몰 고척점","","37.4991319","126.8575901","정보없음"
"4027092","이니스프리 테크노마트 신도림점","","37.5070438","126.8902273","정보없음"
"4027097","코치 롯데백화점 노원점","","37.6552787","127.0613917","정보없음"
"4027098","LG전자 베스트샵 상계점","","37.6710918","127.0557305","정보없음"
"4027099","삼성스토어 노원","","37.6745113","127.0549023","정보없음"
"4027100","오렌즈 노원점","","37.6563543","127.0622496","정보없음"
"4027102","세이브존 노원점","","37.6366236","127.0689153","정보없음"
"4027103","LG전자 베스트샵 용두점","","37.5754524","127.0385007","정보없음"
"4027105","CU 제기한신점","","37.5905060","127.0404416","정보없음"
"4027109","오렌즈 노량진점","","37.5125411","126.9438094","정보없음"
"4027110","LG전자 베스트샵 이수점","","37.4846140","126.9816657","정보없음"
"4027118","기어라운지","","37.5469397","126.9177376","정보없음"
"4027119","에스쁘아 연남","","37.5600044","126.9251745","정보없음"
"4027124","토박스 롯데백화점 잠실점","","37.5113096","127.0981418","정보없음"
"4027125","버버리 롯데백화점 에비뉴엘 잠실점","","37.5137130","127.1043018","정보없음"
"4027128","델보 롯데백화점 에비뉴엘 잠실점","","37.5137130","127.1043018","정보없음"
"4027129","로에베 롯데백화점 에비뉴엘 잠실점","","37.5137130","127.1043018","정보없음"
"4027132","스케쳐스 롯데월드몰점","","37.5137130","127.1043018","정보없음"
"4027134","질샌더 롯데백화점 에비뉴엘 잠실점","","37.5137130","127.1043018","정보없음"
"4027136","돌체앤가바나 롯데백화점 에비뉴엘 잠실점","","37.5137130","127.1043018","정보없음"
"4027138","캉골 롯데월드몰점","","37.5137130","127.1043018","정보없음"
"4027139","크록스 롯데월드몰점","","37.5137130","127.1043018","정보없음"
"4027140","롯데하이마트 천호역점","","37.5372303","127.1225567","정보없음"
"4027142","슈페리어 NC백화점 송파점","","37.4776148","127.1249618","정보없음"
"4027146","스노우피크 현대아울렛 가든파이브점","","37.4776148","127.1249618","정보없음"
"4027150","미꼬 현대백화점 목동점","","37.5273218","126.8746191","정보없음"
"4027151","끌레모다 롯데백화점 영등포점","","37.5156680","126.9076660","정보없음"
"4027152","스톤헨지 롯데백화점 영등포점","","37.5156680","126.9076660","정보없음"
"4027154","NIKE IFC몰점","","37.5251775","126.9248767","정보없음"
"4027156","에잇세컨즈 IFC몰점","","37.5251775","126.9248767","정보없음"
"4027158","디자인스킨 IFC몰점","","37.5251775","126.9248767","정보없음"
"4027160","노브랜드 영등포양평점","","37.5382142","126.8926706","정보없음"
"4027163","입생로랑뷰티 현대백화점 더현대 서울","","37.5251913","126.9291128","정보없음"
"4027166","메종마르지엘라 현대백화점 더현대 서울","","37.5251913","126.9291128","정보없음"
"4027170","AK골프 대방점","","37.4977230","126.9185125","정보없음"
"4027172","대흥할인마트","","37.5235170","126.8840631","정보없음"
"4027173","몽벨 타임스퀘어점","","37.5172333","126.9037160","정보없음"
"4027174","마리떼프랑소와저버 타임스퀘어점","","37.5172333","126.9037160","정보없음"
"4027176","이니스프리 이마트 영등포점","","37.5172333","126.9037160","정보없음"
"4027178","로에베 신세계백화점 타임스퀘어점","","37.5171900","126.9055671","정보없음"
"4027180","오메가 신세계백화점 타임스퀘어점","","37.5171900","126.9055671","정보없음"
"4027182","포터 이태원점","","37.5332417","126.9895536","정보없음"
"4027183","이솝 사운즈 한남","","37.5337502","127.0021482","정보없음"
"4027184","다이슨 데모 스토어 사운즈 한남","","37.5337502","127.0021482","정보없음"
"4027188","세븐일레븐 이태원2호점","","37.5342037","126.9958365","정보없음"
"4012849","로가디스 롯데백화점 울산점","","35.5386361","129.3380552","정보없음"
"4012858","아디다스 모다아울렛 울산점","","35.5770467","129.3571362","정보없음"
"4012873","미우미우 롯데백화점 인천점","","37.4425062","126.7015187","정보없음"
"4012877","닥스 롯데백화점 인천점","","37.4425062","126.7015187","정보없음"
"4012879","금강 롯데백화점 인천점","","37.4425062","126.7015187","정보없음"
"4027189","홈플러스익스프레스 한남점","","37.5339839","127.0103946","정보없음"
"4027190","룰루레몬 이태원 스토어","","37.5344218","126.9961653","정보없음"
"4027191","마리떼프랑소와저버 빌라 드 마리떼 한남","","37.5358310","126.9990968","정보없음"
"4027192","로라로라 한남 플래그십스토어","","37.5357023","126.9995935","정보없음"
"4027194","탬버린즈 한남 플래그십스토어","","37.5359195","126.9999163","정보없음"
"4027195","논픽션 한남","","37.5362572","127.0003424","정보없음"
"4027196","샵아모멘토 한남점","","37.5362572","127.0003424","정보없음"
"4027198","바이말리","","37.5371945","127.0014590","정보없음"
"4027199","제너럴아이디어 한남점","","37.5362766","126.9991786","정보없음"
"4027200","타비오","","37.5356196","127.0006649","정보없음"
"4027202","퍼킹어썸 서울한남점","","37.5378529","127.0018308","정보없음"
"4027203","더 세터 한남","","37.5373835","127.0002393","정보없음"
"4027204","준바이준케이 한남점","","37.5373835","127.0002393","정보없음"
"4027205","시티브리즈 한남 플래그십스토어","","37.5374831","127.0000128","정보없음"
"4027206","마리떼프랑소와저버 에쌍시엘 한남점","","37.5373583","126.9999846","정보없음"
"4027207","나일로라 한남 플래그십스토어","","37.5370136","126.9999484","정보없음"
"4027208","포터리 한남","","37.5367893","126.9993423","정보없음"
"4027211","전자랜드파워센터 용산본점","","37.5327889","126.9595585","정보없음"
"2905140","롯데마트 양평점","","37.5260659","126.8915720","정보없음"
"2905448","아트박스 가로수길점","","37.5182465","127.0237137","정보없음"
"2905466","오렌즈 상수역점","","37.5500837","126.9229305","정보없음"
"2905536","다이나핏 현대아울렛 가산점","","37.4776190","126.8890553","정보없음"
"2905541","타임옴므 현대아울렛 가산점","","37.4776190","126.8890553","정보없음"
"2905705","조던 월드 오브 플라이트 서울 홍대","","37.5569362","126.9233156","정보없음"
"2905739","뉴발란스 롯데프리미엄아울렛 김해점","","35.1850621","128.8295964","정보없음"
"2905796","코오롱스포츠 롯데아울렛 부여점","","36.3071478","126.9022704","정보없음"
"2905801","타미힐피거 롯데프리미엄아울렛 김해점","","35.1850621","128.8295964","정보없음"
"2905810","오즈세컨 롯데프리미엄아울렛 김해점","","35.1850621","128.8295964","정보없음"
"2906016","LAP 롯데프리미엄아울렛 김해점","","35.1850621","128.8295964","정보없음"
"2906141","나이키 이태원BB타운점","","37.5345754","126.9921550","정보없음"
"2906145","올리브데올리브 현대아울렛 가산점","","37.4776190","126.8890553","정보없음"
"2906153","버버리코리아","","37.5244860","127.0467938","정보없음"
"2906207","KT&G 상상마당","","37.5509577","126.9210630","정보없음"
"2906487","코오롱스포츠 롯데프리미엄아울렛 기흥점","","37.2255420","127.1212840","정보없음"
"2906523","크레송 현대아울렛 가산점","","37.4776190","126.8890553","정보없음"
"2907041","탠디 현대아울렛 가산점","","37.4776190","126.8890553","정보없음"
"2907042","모조에스핀 롯데프리미엄아울렛 기흥점","","37.2255420","127.1212840","정보없음"
"2907062","스파이더 롯데프리미엄아울렛 기흥점","","37.2255420","127.1212840","정보없음"
"2907098","지고트 롯데프리미엄아울렛 기흥점","","37.2255420","127.1212840","정보없음"
"2907170","샤틴 현대아울렛 가산점","","37.4776190","126.8890553","정보없음"
"2907194","언더아머 팩토리하우스 롯데프리미엄아울렛 기흥점","","37.2255420","127.1212840","정보없음"
"2907205","다이소 신촌본점","","37.5553118","126.9355391","정보없음"
"2907359","막스마라 청담 플래그십","","37.5266231","127.0443131","정보없음"
"2907419","네파키즈 롯데프리미엄아울렛 기흥점","","37.2255420","127.1212840","정보없음"
"2907558","코데즈컴바인이너웨어 홍대점","","37.5525113","126.9218068","정보없음"
"2907645","구찌 청담 플래그십","","37.5250693","127.0465259","정보없음"
"2907884","지프 롯데프리미엄아울렛 김해점","","35.1850621","128.8295964","정보없음"
"2907947","막스마라 현대프리미엄아울렛 김포점","","37.5972369","126.7852336","정보없음"
"2908336","타임 현대아울렛 가산점","","37.4776190","126.8890553","정보없음"
"2909302","나이키 구미타운점","","36.1286575","128.3314793","정보없음"
"2909413","동아백화점 구미점","","36.1199944","128.3486047","정보없음"
"2909519","정관장 장안동점","","37.5710464","127.0712671","정보없음"
"2909609","산드로 롯데프리미엄아울렛 기흥점","","37.2255420","127.1212840","정보없음"
"2909687","금강제화 롯데백화점 노원점","","37.6552787","127.0613917","정보없음"
"2909802","미셀바이탠디 롯데프리미엄아울렛 기흥점","","37.2255420","127.1212840","정보없음"
"2909930","데무 롯데프리미엄아울렛 기흥점","","37.2255420","127.1212840","정보없음"
"2910037","휠라 롯데아울렛 부여점","","36.3071478","126.9022704","정보없음"
"2910049","더아이잗컬렉션 롯데프리미엄아울렛 기흥점","","37.2255420","127.1212840","정보없음"
"2910075","네파 롯데프리미엄아울렛 기흥점","","37.2255420","127.1212840","정보없음"
"2910107","리버클래시 롯데프리미엄아울렛 기흥점","","37.2255420","127.1212840","정보없음"
"2910193","모조에스핀 현대프리미엄아울렛 김포점","","37.5972369","126.7852336","정보없음"
"2910228","타미힐피거 롯데아울렛 부여점","","36.3071478","126.9022704","정보없음"
"2910297","핑 현대아울렛 가산점","","37.4776190","126.8890553","정보없음"
"2910324","테스토니 롯데백화점 부산본점","","35.1567900","129.0564162","정보없음"
"2910330","노스페이스 광진점","","37.5351325","127.0838428","정보없음"
"2910412","러쉬 타임스트림점","","37.4838513","126.9302345","정보없음"
"2910477","볼빅 롯데프리미엄아울렛 기흥점","","37.2255420","127.1212840","정보없음"
"2910487","리복 롯데프리미엄아울렛 김해점","","35.1850621","128.8295964","정보없음"
"2910531","르꼬끄골프 롯데프리미엄아울렛 기흥점","","37.2255420","127.1212840","정보없음"
"2910596","쁘렝땅 현대아울렛 가산점","","37.4776190","126.8890553","정보없음"
"2910617","다이나핏 롯데프리미엄아울렛 동부산점","","35.1923230","129.2124953","정보없음"
"2910647","아르마디오 롯데프리미엄아울렛 기흥점","","37.2255420","127.1212840","정보없음"
"2910905","네이처리퍼블릭 공덕역6호선점","","37.5435269","126.9519476","정보없음"
"2910945","러쉬 홍대점","","37.5524381","126.9213760","정보없음"
"2911170","금강제화 영등포본점","","37.5179856","126.9062154","정보없음"
"2911181","신사 굿약국","","37.5167334","127.0218773","정보없음"
"4012703","플리츠마마 이웃 삼청점","","37.5798349","126.9817956","정보없음"
"4012704","논픽션 삼청&기프트샵","","37.5801063","126.9804074","정보없음"
"4012707","다니엘트루스 퍼퓸하우스 삼청","","37.5819299","126.9815657","정보없음"
"4012708","이목","","37.5841117","126.9821231","정보없음"
"4012709","김인태 김해김","","37.5840414","126.9802976","정보없음"
"4012710","당근약국","","37.5703546","126.9739686","정보없음"
"4027302","반에이크 롯데백화점 울산점","","35.5386227","129.3388668","정보없음"
"4027306","LG전자 베스트샵 울산본점","","35.5393985","129.3401372","정보없음"
"4027308","에잇세컨즈 울산업스퀘어점","","35.5413464","129.3388996","정보없음"
"4027310","롯데하이마트 동구일산점","","35.4989465","129.4286393","정보없음"
"4027311","LG전자 베스트샵 동울산점","","35.5014006","129.4291015","정보없음"
"4027312","삼성스토어 현대백화점 울산 동구점","","35.5216461","129.4313262","정보없음"
"4027316","굿모닝안경원","","35.5557284","129.3231695","정보없음"
"4027317","나이키 계산점","","37.5428080","126.7208844","정보없음"
"4027318","롯데하이마트 롯데마트 계양점","","37.5408493","126.7360035","정보없음"
"4027319","정관장 모래내시장점","","37.4556111","126.7202967","정보없음"
"4027324","LG전자 베스트샵 도화점","","37.4636226","126.6700806","정보없음"
"4027325","삼성스토어 도화","","37.4624396","126.6705862","정보없음"
"4027326","정관장 주안점","","37.4509244","126.6795274","정보없음"
"4027328","오메가 롯데백화점 인천점","","37.4425062","126.7015187","정보없음"
"4027330","입생로랑뷰티 롯데백화점 인천점","","37.4425062","126.7015187","정보없음"
"4027331","노스페이스 구월점","","37.4508734","126.6924770","정보없음"
"4027334","ABC마트 SP 인천부평점","","37.4928350","126.7236442","정보없음"
"4027338","LG전자 베스트샵 검단점","","37.5939948","126.6959697","정보없음"
"4027344","STCO 송도트리플스트리트점","","37.3806957","126.6587837","정보없음"
"4027348","스톤헨지 현대프리미엄아울렛 송도점","","37.3816291","126.6579170","정보없음"
"4027350","말본골프 현대프리미엄아울렛 송도점","","37.3816291","126.6579170","정보없음"
"4027352","캉골키즈 현대프리미엄아울렛 송도점","","37.3816291","126.6579170","정보없음"
"4027353","내셔널지오그래픽 현대 프리미엄 아울렛 송도점","","37.3816291","126.6579170","정보없음"
"4027355","마인드브릿지 현대프리미엄아울렛 송도점","","37.3816291","126.6579170","정보없음"
"4027357","커버낫 현대프리미엄아울렛 송도점","","37.3816291","126.6579170","정보없음"
"4027359","아트박스 인천송도점","","37.3970487","126.6477328","정보없음"
"4027363","나이키 LF스퀘어 인천점","","37.4186618","126.6689811","정보없음"
"4027366","텍코리아","","37.3981602","126.6516913","정보없음"
"4027369","블랙앤화이트 여수점","","34.7414144","127.7347099","정보없음"
"4027373","데상트 롯데몰 군산점","","35.9764135","126.7391411","정보없음"
"4027374","르꼬끄골프 롯데몰 군산점","","35.9764135","126.7391411","정보없음"
"4027376","에스마켓 롯데몰 군산점","","35.9764135","126.7391411","정보없음"
"4027378","캉골 롯데몰 군산점","","35.9764135","126.7391411","정보없음"
"4027379","코닥 롯데몰 군산점","","35.9764135","126.7391411","정보없음"
"4027381","캉골키즈 롯데몰 군산점","","35.9764135","126.7391411","정보없음"
"4027383","LG전자 베스트샵 군산경암점","","35.9797852","126.7373213","정보없음"
"4027387","라이프워크 익산직영점","","35.9588664","126.9801283","정보없음"
"4027390","LG전자 베스트샵 덕진점","","35.8479899","127.1175637","정보없음"
"4027391","나이키 전주송천동점","","35.8695006","127.1160578","정보없음"
"4027392","롯데하이마트 효자점","","35.8031753","127.1256380","정보없음"
"4027394","LG전자 베스트샵 서전주점","","35.8018459","127.0998159","정보없음"
"4027395","닥스핸드백 롯데백화점 전주점","","35.8344589","127.1219082","정보없음"
"4027396","라이프워크 메가스토어 전주점","","35.8203298","127.1420326","정보없음"
"4027401","미즈노 전주객사점","","35.8206838","127.1430875","정보없음"
"4027403","컨버스 전주객사점","","35.8190312","127.1452515","정보없음"
"4027404","데상트 롯데백화점 관악점","","37.4904955","126.9249817","정보없음"
"4027405","아크테릭스 도봉산점","","37.6868298","127.0392940","정보없음"
"4025403","쉬즈미스 롯데몰 광교점","","37.2866697","127.0554484","정보없음"
"4025404","쌤소나이트 롯데몰 광교점","","37.2866697","127.0554484","정보없음"
"4025405","비너스 롯데몰 광교점","","37.2866697","127.0554484","정보없음"
"4025406","아디다스 롯데몰 광교점","","37.2866697","127.0554484","정보없음"
"4025409","지오송지오 롯데몰 광교점","","37.2866697","127.0554484","정보없음"
"4025410","코닥 롯데몰 광교점","","37.2866697","127.0554484","정보없음"
"4025414","라이프워크 롯데몰 광교점","","37.2866697","127.0554484","정보없음"
"4025420","논픽션 스타필드 수원점","","37.2874453","126.9915746","정보없음"
"4025422","마이클코어스 스타필드 수원점","","37.2874453","126.9915746","정보없음"
"4025423","아르켓 스타필드 수원점","","37.2874453","126.9915746","정보없음"
"4025428","코데즈컴바인 스타필드 수원점","","37.2874453","126.9915746","정보없음"
"4025429","Lee 스타필드 수원점","","37.2874453","126.9915746","정보없음"
"4025430","커버낫 스타필드 수원점","","37.2874453","126.9915746","정보없음"
"4025432","일렉트로마트 스타필드수원점","","37.2874453","126.9915746","정보없음"
"4025433","지오다노 스타필드 수원점","","37.2874453","126.9915746","정보없음"
